stop_id,stop_code,stop_name,stop_desc,stop_lat,stop_lon,zone_id,stop_url,location_type,parent_station,stop_timezone,wheelchair_boarding
040000002153,,"Amersham, Railway Station",,51.674965,-0.607715,,,,,,
040000002155,,"Amersham, Oakfield Corner",,51.676386,-0.6077,,,,,,
040000002161,,"Amersham, Hervines Road",,51.679796,-0.608651,,,,,,
040000002163,,"Amersham, Copperkins Lane",,51.681816,-0.60992,,,,,,
040000002651,,"Chesham Bois, Amersham Road",,51.683596,-0.612108,,,,,,
040000002165,,"Chesham Bois, Bois Avenue",,51.685478,-0.614669,,,,,,
040000002167,,"Chesham Bois, The Beacon School",,51.689399,-0.61397,,,,,,
040000002169,,"Chesham, Mineral Lane",,51.701236,-0.611163,,,,,,
040000002171,,"Chesham, Red Lion Street",,51.702851,-0.612416,,,,,,
040000002173,,"Chesham, Broadway",,51.70635,-0.612512,,,,,,
040000002701,,"Chesham, Police Station",,51.708825,-0.610453,,,,,,
040000002703,,"Chesham, The Jolly Sportsman PH",,51.710737,-0.609352,,,,,,
040000002705,,"Chesham, Berkhampstead Road",,51.713806,-0.608086,,,,,,
040000002707,,"Chesham, The Nash Arms PH",,51.716405,-0.60734,,,,,,
040000002709,,"Chesham, Preston Hill",,51.717529,-0.603542,,,,,,
040000002801,,"Chesham, Culverhouse Way",,51.720906,-0.597183,,,,,,
040000002803,,"Lye Green, Deer Park Walk",,51.720532,-0.592273,,,,,,
040000002727,,"Lye Green, The Green",,51.720705,-0.584189,,,,,,
040000002596,,"Orchard Leigh, Rushmere Lane",,51.719663,-0.569412,,,,,,
210021403647,,"Bovingdon, Airfield",,51.721175750124,-0.55022776153747,,,,,,
210021409300,,"Bovingdon, Whitehart Cross",,51.718082918081,-0.54371094238603,,,,,,
210021403590,,"Bovingdon Green, The Grange",,51.717085601313,-0.53725767862597,,,,,,
210021403600,,"Bovingdon, Nye Way",,51.71973367197,-0.53256856026756,,,,,,
210021403940,,"Bovingdon, Memorial Hall",,51.722736936423,-0.53184878486547,,,,,,
210021403960,,"Bovingdon, Hempstead Road",,51.723905174464,-0.53395373395511,,,,,,
210021403980,,"Bovingdon, Vicarage Lane",,51.725546037152,-0.5335821245992,,,,,,
210021404000,,"Bovingdon, Bobsleigh Hotel",,51.729046499781,-0.5266053605394,,,,,,
210021404020,,"Bovingdon, Little Hay Golf Course",,51.731708028281,-0.52230490474119,,,,,,
210021404040,,"Bovingdon, Bury Rise",,51.734491229777,-0.51057083823413,,,,,,
210021404060,,"Felden, Sheethanger Common",,51.736647804161,-0.50408423010412,,,,,,
210021404080,,"Felden, Boxmoor House School",,51.739909761328,-0.49968940711206,,,,,,
210021404400,,"Felden, Meadow Way",,51.742526080382,-0.49544575096397,,,,,,
210021404420,,"Hemel Hempstead, Railway Station",,51.743260532507,-0.48961304805041,,,,,,
210021404460,,"Boxmoor, Roughdown Road",,51.743134935213,-0.48614095113623,,,,,,
210021404480,,"Boxmoor, St Johns Church",,51.744232745201,-0.47923842439188,,,,,,
210021407010,,"Hemel Hempstead, Riverside",,51.74695838907,-0.47446799750394,,,,,,
210021407005,,"Hemel Hempstead, Waterhouse Street",,51.748414580204,-0.47373808992439,,,,,,
210021413007,,"Hemel Hempstead, Marlowes",,51.752135667419,-0.47223635754961,,,,,,
040000002953,,"High Wycombe, Bus Station",,51.631174,-0.756764,,,,,,
040000003058,,"High Wycombe, Oxford Street",,51.630941,-0.753404,,,,,,
040000003052,,"High Wycombe, Castle Street",,51.629732,-0.74799,,,,,,
040000003101,,"High Wycombe, Maybrook Gardens",,51.634909,-0.742732,,,,,,
040000003103,,"High Wycombe, Amersham Hill Drive",,51.637563,-0.740289,,,,,,
040000003105,,"High Wycombe, Royal Grammar School",,51.641012,-0.73739,,,,,,
040000003109,,"Terriers, Crossroads",,51.644273,-0.732169,,,,,,
040000003113,,"Terriers, De Havilland Drive",,51.646765,-0.724786,,,,,,
040000003115,,"Hazlemere, St John's Road",,51.647874,-0.720881,,,,,,
040000003117,,"Hazlemere, Holy Trinity Church",,51.649953,-0.716139,,,,,,
040000003119,,"Hazlemere, Holmer Green Road",,51.652255,-0.712894,,,,,,
040000003087,,"Hazlemere, Park Lane",,51.655084,-0.711744,,,,,,
040000003121,,"Hazlemere, Park Parade",,51.657019,-0.709405,,,,,,
040000003123,,"Hazlemere, Sawpit Hill",,51.661191,-0.706149,,,,,,
040000002103,,"Holmer Green, Copners Drive",,51.662509,-0.700906,,,,,,
040000002105,,"Holmer Green, Browns Road",,51.664087,-0.696466,,,,,,
040000002107,,"Holmer Green, The Pond",,51.665256,-0.693974,,,,,,
040000002109,,"Holmer Green, The Bat & Ball PH",,51.667631,-0.690913,,,,,,
040000002111,,"Holmer Green, Winters Way",,51.667122,-0.687934,,,,,,
040000002113,,"Beamond End, Sheepcote Dell Road",,51.662604,-0.679621,,,,,,
040000002115,,"Penn Street, Penn Wood",,51.66091,-0.664937,,,,,,
040000002135,,"Winchmore Hill, New Road",,51.657511,-0.633636,,,,,,
040000002137,,"Old Amersham, Crematorium",,51.659536,-0.626896,,,,,,
040000002097,,"Old Amersham, Amersham Hospital",,51.661243,-0.622189,,,,,,
040000002139,,"Old Amersham, Gilbert Scott Court",,51.663639,-0.619427,,,,,,
040000002141,,"Old Amersham, Whielden Street",,51.665593,-0.616634,,,,,,
040000002143,,"Old Amersham, Broadway",,51.665649,-0.612989,,,,,,
040000002499,,"Amersham, The Chequers PH",,51.664351,-0.606609,,,,,,
040000002600,,"Amersham, Stanley Hill Schools",,51.668079,-0.594998,,,,,,
040000002607,,"Amersham, Blackhorse Bridge",,51.672749,-0.592294,,,,,,
040000002606,,"Amersham, Plantation Road",,51.673961,-0.594324,,,,,,
040000002604,,"Amersham, Green Lane",,51.67617,-0.599405,,,,,,
040000002602,,"Amersham, Leisure Centre",,51.676677,-0.602658,,,,,,
040000002836,,"Chesham, Eskdale Avenue",,51.710595,-0.603437,,,,,,
040000002743,,"Chesham, Codmore Cross",,51.709805,-0.599843,,,,,,
210021406005,,"Hemel Hempstead, Waterhouse Street",,51.748655936936,-0.47362855114498,,,,,,
210021406020,,"Hemel Hempstead, Riverside",,51.747136831349,-0.47436058578809,,,,,,
210021408520,,"Boxmoor, St Johns Church",,51.744159699727,-0.47776342091318,,,,,,
210021408540,,"Boxmoor, Roughdown Road",,51.742989110177,-0.48529124082368,,,,,,
210021408560,,"Hemel Hempstead, Railway Station",,51.742927297609,-0.49097121410746,,,,,,
210021408660,,"Felden, Meadow Way",,51.742346782576,-0.49619040372189,,,,,,
210021408720,,"Felden, Boxmoor House School",,51.739543840068,-0.49990429320154,,,,,,
210021408740,,"Felden, Sheethanger Common",,51.736223747483,-0.50467752322448,,,,,,
210021408760,,"Bovingdon, Bury Rise",,51.734377136602,-0.51079181409124,,,,,,
210021408780,,"Bovingdon, Little Hay Golf Course",,51.730443463755,-0.52399690807104,,,,,,
210021408800,,"Bovingdon, Bobsleigh Hotel",,51.728886709365,-0.52676983467421,,,,,,
210021408820,,"Bovingdon, Vicarage Lane",,51.725560762394,-0.53332102919427,,,,,,
210021408840,,"Bovingdon, Hempstead Road",,51.723874237404,-0.53363621215671,,,,,,
210021408860,,"Bovingdon, Memorial Hall",,51.722469407699,-0.53130729172305,,,,,,
210021409330,,"Bovingdon, Nye Way",,51.719253730974,-0.53301840030218,,,,,,
210021409335,,"Bovingdon Green, The Grange",,51.716966953399,-0.53711674580272,,,,,,
210021403640,,"Bovingdon, Whitehart Cross",,51.718012088284,-0.54380007601914,,,,,,
210021403648,,"Bovingdon, Airfield",,51.72106068827,-0.55037621511594,,,,,,
040000002597,,"Orchard Leigh, Rushmere Lane",,51.719523,-0.569749,,,,,,
040000002744,,"Chesham, Codmore Cross",,51.709651,-0.599732,,,,,,
040000002825,,"Chesham, Eskdale Avenue",,51.710506,-0.60357,,,,,,
040000002704,,"Chesham, The Jolly Sportsman PH",,51.710715,-0.609035,,,,,,
040000002702,,"Chesham, Police Station",,51.708761,-0.61031,,,,,,
040000002174,,"Chesham, Broadway",,51.706309,-0.612875,,,,,,
040000002172,,"Chesham, Red Lion Street",,51.702328,-0.611535,,,,,,
040000002170,,"Chesham, The Wild Rover PH",,51.700991,-0.610982,,,,,,
040000002168,,"Chesham Bois, The Beacon School",,51.688869,-0.614001,,,,,,
040000002166,,"Chesham Bois, Bois Avenue",,51.685639,-0.614577,,,,,,
040000002652,,"Chesham Bois, Amersham Road",,51.683603,-0.611934,,,,,,
040000002164,,"Amersham, Copperkins Lane",,51.682371,-0.610438,,,,,,
040000002162,,"Amersham, Hervines Road",,51.679307,-0.608305,,,,,,
040000002156,,"Amersham, Oakfield Corner",,51.676303,-0.607515,,,,,,
040000002213,,"Amersham, Railway Station",,51.67455,-0.607568,,,,,,
040000002601,,"Amersham, Leisure Centre",,51.676581,-0.602907,,,,,,
040000002603,,"Amersham, Green Lane",,51.675837,-0.598576,,,,,,
040000002605,,"Amersham, Plantation Road",,51.673658,-0.59309,,,,,,
040000002498,,"Amersham, The Chequers PH",,51.664131,-0.606239,,,,,,
040000002142,,"Old Amersham, Broadway",,51.665396,-0.612866,,,,,,
040000002140,,"Old Amersham, Whielden Street",,51.66584,-0.616193,,,,,,
040000002138,,"Old Amersham, Gilbert Scott Court",,51.663476,-0.619374,,,,,,
040000002096,,"Old Amersham, Amersham Hospital",,51.661206,-0.622031,,,,,,
040000002136,,"Old Amersham, Crematorium",,51.659175,-0.627557,,,,,,
040000002134,,"Winchmore Hill, New Road",,51.65677,-0.634858,,,,,,
040000002133,,"Winchmore Hill, Whielden Gate",,51.6531,-0.644119,,,,,,
040000002116,,"Penn Street, Penn Wood",,51.661009,-0.665729,,,,,,
040000002114,,"Beamond End, Sheepcote Dell Road",,51.661632,-0.678738,,,,,,
040000002112,,"Holmer Green, Winters Way",,51.666221,-0.685415,,,,,,
040000002110,,"Holmer Green, The Bat & Ball PH",,51.667603,-0.690783,,,,,,
040000002108,,"Holmer Green, The Pond",,51.665271,-0.693713,,,,,,
040000002106,,"Holmer Green, Browns Road",,51.663657,-0.697375,,,,,,
040000002104,,"Holmer Green, Copners Drive",,51.662776,-0.699887,,,,,,
040000003122,,"Hazlemere, Sawpit Hill",,51.661171,-0.705962,,,,,,
040000003120,,"Hazlemere, Park Parade",,51.657829,-0.708674,,,,,,
040000003118,,"Hazlemere, Park Lane",,51.654762,-0.711883,,,,,,
040000003116,,"Hazlemere, Crossroads",,51.650784,-0.714005,,,,,,
040000003114,,"Hazlemere, Holy Trinity Church",,51.649067,-0.718173,,,,,,
040000003112,,"Hazlemere, St John's Road",,51.647527,-0.721295,,,,,,
040000003110,,"Terriers, De Havilland Drive",,51.646769,-0.724309,,,,,,
040000003108,,"Terriers, Crossroads",,51.644139,-0.732259,,,,,,
040000003106,,"High Wycombe, Royal Grammar School",,51.640956,-0.737218,,,,,,
040000003104,,"High Wycombe, Amersham Hill Drive",,51.637712,-0.739967,,,,,,
040000003102,,"High Wycombe, Maybrook Gardens",,51.634409,-0.743006,,,,,,
040000002972,,"High Wycombe, Station Interchange",,51.629748,-0.746054,,,,,,
040000003053,,"High Wycombe, Castle Street",,51.629596,-0.747849,,,,,,
040000003061,,"High Wycombe, Oxford Street",,51.63076,-0.753308,,,,,,
040000002728,,"Lye Green, The Green",,51.720653,-0.584393,,,,,,
040000002804,,"Lye Green, Deer Park Walk",,51.720479,-0.592318,,,,,,
040000002802,,"Chesham, Culverhouse Way",,51.720768,-0.597709,,,,,,
040000002712,,"Chesham, Lycrome Road",,51.72001,-0.598963,,,,,,
040000002710,,"Chesham, Preston Hill",,51.717656,-0.602944,,,,,,
040000002708,,"Chesham, The Nash Arms PH",,51.716349,-0.607211,,,,,,
040000002706,,"Chesham, Berkhampstead Road",,51.713454,-0.607952,,,,,,
040000002147,,"Amersham, Station Road",,51.665902,-0.60779,,,,,,
040000002149,,"Amersham, Beech Grove",,51.669264,-0.606877,,,,,,
040000002151,,"Amersham, The Rise",,51.671517,-0.607314,,,,,,
040000002175,,"Chesham, Townsend Road",,51.710126,-0.613236,,,,,,
040000002177,,"Chesham, Fire Station",,51.713434,-0.615421,,,,,,
040000002813,,"Chesham, Valley View",,51.716322,-0.617823,,,,,,
040000002179,,"Chesham, Hivings Hill",,51.716861,-0.618603,,,,,,
040000002181,,"Chesham, Hope Church",,51.721291,-0.617599,,,,,,
040000002183,,"Chesham, Windsor Road",,51.71936,-0.616181,,,,,,
040000002185,,"Chesham, Lyndhurst Road",,51.71738,-0.613752,,,,,,
040000002099,,"Chesham, Lansdowne Road",,51.715245,-0.611183,,,,,,
040000002698,,"Chesham, Addison Road",,51.714685,-0.609448,,,,,,
040000002150,,"Amersham, The Rise",,51.671651,-0.607238,,,,,,
040000002148,,"Amersham, Beech Grove",,51.669352,-0.60673,,,,,,
040000002146,,"Amersham, Station Road",,51.665383,-0.607994,,,,,,
040000002963,,"High Wycombe, Bus Station",,51.631412,-0.75631,,,,,,
040000003347,,"High Wycombe, St John's Church",,51.63121,-0.760144,,,,,,
040000003288,,"High Wycombe, Baker Street",,51.633196,-0.761766,,,,,,
040000003329,,"High Wycombe, The White Horse PH",,51.634853,-0.764539,,,,,,
040000003331,,"High Wycombe, Desborough Park Road",,51.637172,-0.772134,,,,,,
040000003333,,"High Wycombe, Mill End Road",,51.639127,-0.778584,,,,,,
040000003309,,"High Wycombe, Pheasant Drive",,51.64043,-0.78024,,,,,,
040000003305,,"High Wycombe, Falcon Rise",,51.64192,-0.782541,,,,,,
040000003307,,"High Wycombe, Curlew Close",,51.644475,-0.782733,,,,,,
040000003308,,"High Wycombe, Plomer Green Avenue",,51.644871,-0.775814,,,,,,
040000003296,,"Downley, Hillfield Close",,51.64357,-0.77345,,,,,,
040000003084,,"Downley, Downs Park",,51.642281,-0.771505,,,,,,
040000003276,,"High Wycombe, Pastures Church",,51.640086,-0.76798,,,,,,
040000003274,,"High Wycombe, The Pastures",,51.638788,-0.765067,,,,,,
040000003272,,"High Wycombe, Brindley Avenue",,51.638004,-0.7623,,,,,,
040000003264,,"High Wycombe, Hughenden Avenue",,51.639115,-0.75344,,,,,,
040000003254,,"High Wycombe, The Beaconsfield Arms PH",,51.637533,-0.750954,,,,,,
040000003135,,"Hazlemere, Crossroads",,51.651515,-0.711802,,,,,,
040000003137,,"Hazlemere, Rose Avenue",,51.650442,-0.708262,,,,,,
040000005015,,"Hazlemere, Sir William Ramsay School",,51.647702,-0.710286,,,,,,
040000003136,,"Tylers Green, William Ramsay School",,51.648436,-0.71066,,,,,,
040000003134,,"Hazlemere, Rose Avenue",,51.650249,-0.708672,,,,,,
040000003267,,"High Wycombe, The Beaconsfield Arms PH",,51.638169,-0.750778,,,,,,
040000003277,,"High Wycombe, Hughenden Avenue",,51.638726,-0.751586,,,,,,
040000003285,,"High Wycombe, Brindley Avenue",,51.637867,-0.762101,,,,,,
040000003287,,"High Wycombe, The Pastures",,51.638802,-0.765515,,,,,,
040000003289,,"High Wycombe, Pastures Church",,51.640318,-0.768653,,,,,,
040000003085,,"Downley, Downs Park",,51.641791,-0.771056,,,,,,
040000003291,,"Downley, Hillfield Close",,51.643462,-0.773453,,,,,,
040000003297,,"High Wycombe, Plomer Green Avenue",,51.644452,-0.774452,,,,,,
040000003299,,"Downley, Cross Court Shops",,51.644914,-0.777388,,,,,,
040000003290,,"Downley, South View",,51.645076,-0.779089,,,,,,
040000003292,,"High Wycombe, Curlew Close",,51.644392,-0.782446,,,,,,
040000003294,,"High Wycombe, Falcon Rise",,51.642037,-0.782553,,,,,,
040000003298,,"High Wycombe, Pheasant Drive",,51.640574,-0.779369,,,,,,
040000003324,,"High Wycombe, Mill End Road",,51.639215,-0.778409,,,,,,
040000002933,,"High Wycombe, Mill End Road East",,51.638815,-0.777133,,,,,,
040000003322,,"High Wycombe, Desborough Park Road",,51.636868,-0.770654,,,,,,
040000003320,,"High Wycombe, The White Horse PH",,51.635426,-0.765997,,,,,,
040000003279,,"High Wycombe, Baker Street",,51.633248,-0.761548,,,,,,
040000003336,,"High Wycombe, St John's Church",,51.631412,-0.760572,,,,,,
040000000903,,"High Wycombe, Coachway",,51.614271,-0.763725,,,,,,
040000005030,,"Cressex, Next",,51.613346,-0.774722,,,,,,
040000002939,,"Cressex, Cressex Link Road",,51.615187,-0.778689,,,,,,
040000003440,,"Cressex, Coronation Road",,51.617032,-0.778369,,,,,,
040000003400,,"Cressex, Halifax Road",,51.620159,-0.778169,,,,,,
040000003402,,"Cressex, Lincoln Road",,51.621281,-0.773661,,,,,,
040000003406,,"Cressex, Lancaster Road",,51.61942,-0.769349,,,,,,
040000003408,,"High Wycombe, Carver Hill Road",,51.623215,-0.766054,,,,,,
040000003410,,"High Wycombe, The Wendover Arms PH",,51.626855,-0.764944,,,,,,
040000003412,,"High Wycombe, Plumer Road",,51.629048,-0.764046,,,,,,
040000003418,,"High Wycombe, Wycombe General Hospital",,51.627105,-0.75219,,,,,,
040000003095,,"High Wycombe, Town Hall",,51.627952,-0.748863,,,,,,
040000003063,,"High Wycombe, Crendon Street",,51.629109,-0.747747,,,,,,
040000002973,,"High Wycombe, Station Interchange",,51.629655,-0.745767,,,,,,
040000002952,,"High Wycombe, Bus Station",,51.631157,-0.756808,,,,,,
040000003429,,"High Wycombe, West End Road",,51.630539,-0.762994,,,,,,
040000003427,,"High Wycombe, Plumer Road",,51.628992,-0.763845,,,,,,
040000003425,,"High Wycombe, The Wendover Arms PH",,51.626171,-0.764933,,,,,,
040000003423,,"High Wycombe, Carver Hill Road",,51.622754,-0.765763,,,,,,
040000003411,,"Cressex, Lancaster Road",,51.619432,-0.769666,,,,,,
040000003413,,"Cressex, Lincoln Road",,51.62143,-0.774177,,,,,,
040000003415,,"Cressex, Halifax Road",,51.620077,-0.778027,,,,,,
040000003971,,"Cressex, Coronation Road",,51.617085,-0.778237,,,,,,
040000002940,,"Cressex, Cressex Link Road",,51.615833,-0.77833,,,,,,
040000003383,,"Cressex, John Hall Way",,51.613428,-0.775071,,,,,,
040000002906,,"Booker, YMCA",,51.613002,-0.779127,,,,,,
040000003311,,"High Wycombe, Southfield Road",,51.640105,-0.776636,,,,,,
040000003313,,"High Wycombe, White Close",,51.640072,-0.773501,,,,,,
040000003315,,"High Wycombe, Middlebrook Road",,51.639743,-0.770374,,,,,,
040000003306,,"High Wycombe, Cotswold Way",,51.637881,-0.768575,,,,,,
040000003086,,"High Wycombe, Brecon Way",,51.636534,-0.766198,,,,,,
040000003088,,"High Wycombe, Cumbrian Way",,51.635813,-0.76431,,,,,,
040000003090,,"High Wycombe, Mendip Way",,51.635228,-0.762592,,,,,,
040000003316,,"High Wycombe, Riverside",,51.633555,-0.759964,,,,,,
040000002951,,"High Wycombe, Bus Station",,51.63113,-0.756852,,,,,,
040000003165,,"High Wycombe, Railway Station",,51.630262,-0.746213,,,,,,
040000003167,,"High Wycombe, Duke Street",,51.62973,-0.741908,,,,,,
040000003169,,"High Wycombe, Lucas Road",,51.629514,-0.738475,,,,,,
040000003188,,"High Wycombe, Bowerdean Crossroads",,51.630483,-0.734966,,,,,,
040000003190,,"High Wycombe, Chichester Close",,51.627778,-0.734304,,,,,,
040000003245,,"High Wycombe, Cricket Ground",,51.624975,-0.734483,,,,,,
040000003247,,"High Wycombe, Chestnut Avenue",,51.623657,-0.731559,,,,,,
040000003249,,"High Wycombe, London Road Lidl",,51.622801,-0.727234,,,,,,
040000003251,,"Wycombe Marsh, Post Office",,51.620546,-0.719916,,,,,,
040000003949,,"High Wycombe, Cock Lane",,51.623214,-0.713109,,,,,,
040000003442,,"High Wycombe, Olympic Way",,51.624497,-0.711378,,,,,,
040000003950,,"High Wycombe, Cock Lane",,51.622849,-0.713452,,,,,,
040000003951,,"High Wycombe, Bank Street",,51.620032,-0.71655,,,,,,
040000003952,,"High Wycombe, Orchard Road",,51.618377,-0.713188,,,,,,
040000003257,,"Wycombe Marsh, The King George V PH",,51.61644,-0.712882,,,,,,
040000003259,,"High Wycombe, Hammersley Lane",,51.615641,-0.709669,,,,,,
040000003131,,"High Wycombe, The Rise",,51.615697,-0.703312,,,,,,
040000003133,,"High Wycombe, Magpie Wood",,51.614291,-0.701446,,,,,,
040000003236,,"High Wycombe, Hammersley Lane",,51.615018,-0.708603,,,,,,
040000003234,,"Wycombe Marsh, The King George V PH",,51.616099,-0.712082,,,,,,
040000003232,,"Wycombe Marsh, Ford Street",,51.618369,-0.716583,,,,,,
040000003230,,"Wycombe Marsh, Post Office",,51.620823,-0.721425,,,,,,
040000003250,,"High Wycombe, London Road Lidl",,51.622764,-0.727864,,,,,,
040000003248,,"High Wycombe, Chestnut Avenue",,51.623292,-0.73102,,,,,,
040000003253,,"High Wycombe, Gordon Road",,51.626143,-0.735303,,,,,,
040000003163,,"High Wycombe, Chichester Close",,51.62762,-0.734598,,,,,,
040000003172,,"High Wycombe, Bowerdean Crossroads",,51.630525,-0.735557,,,,,,
040000003174,,"High Wycombe, Lucas Road",,51.629411,-0.73816,,,,,,
040000003176,,"High Wycombe, Duke Street",,51.629736,-0.742456,,,,,,
040000003325,,"High Wycombe, Brook Street",,51.632633,-0.757808,,,,,,
040000003327,,"High Wycombe, Riverside",,51.633494,-0.760111,,,,,,
040000002954,,"High Wycombe, Bus Station",,51.631201,-0.75672,,,,,,
040000003054,,"High Wycombe, High Street",,51.628654,-0.748916,,,,,,
040000003243,,"High Wycombe, Trinity Church",,51.6269,-0.742925,,,,,,
040000003231,,"High Wycombe, Hillary Road",,51.626796,-0.723323,,,,,,
040000002942,,"High Wycombe, Windrush Court",,51.627777,-0.721706,,,,,,
040000002949,,"High Wycombe, Windrush Drive",,51.626226,-0.72136,,,,,,
040000003449,,"High Wycombe, St Hugh's Avenue",,51.625408,-0.720516,,,,,,
040000003451,,"High Wycombe, Hennerton Way South",,51.624639,-0.720928,,,,,,
040000003235,,"High Wycombe, Horsenden Road",,51.624108,-0.720047,,,,,,
040000003099,,"High Wycombe, Gynant Road",,51.625384,-0.719159,,,,,,
040000003237,,"High Wycombe, Roebuck Avenue",,51.626965,-0.717351,,,,,,
040000003252,,"High Wycombe, Misbourne Avenue",,51.627318,-0.717587,,,,,,
040000003220,,"High Wycombe, Hicks Farm Rise",,51.629845,-0.720102,,,,,,
040000003222,,"Totteridge, Baring Road",,51.632764,-0.722216,,,,,,
040000003192,,"Totteridge, Hollis Road",,51.634556,-0.722513,,,,,,
040000003194,,"Totteridge, Holywell Gardens",,51.631876,-0.723238,,,,,,
040000003196,,"High Wycombe, The Quadrangle",,51.630934,-0.725995,,,,,,
040000003198,,"High Wycombe, Baptist Church",,51.630809,-0.728513,,,,,,
040000003200,,"High Wycombe, Everest Road",,51.628806,-0.727861,,,,,,
040000003202,,"High Wycombe, Hillary Close",,51.628024,-0.72456,,,,,,
040000003204,,"High Wycombe, Hillary Road",,51.625991,-0.722912,,,,,,
040000003246,,"High Wycombe, Cricket Ground",,51.625448,-0.736666,,,,,,
040000003244,,"High Wycombe, Trinity Church",,51.626802,-0.743,,,,,,
040000003055,,"High Wycombe, High Street",,51.628658,-0.749262,,,,,,
040000002955,,"High Wycombe, Bus Station",,51.631227,-0.756676,,,,,,
040000003255,,"Wycombe Marsh, Ford Street",,51.617983,-0.715814,,,,,,
040000003261,,"Loudwater, Rayners Avenue",,51.611696,-0.702603,,,,,,
040000003263,,"Loudwater, Loudwater Turn",,51.6096,-0.699211,,,,,,
040000003265,,"Loudwater, The Papermill",,51.607633,-0.696148,,,,,,
040000003047,,"Loudwater, Tesco",,51.605311,-0.69116,,,,,,
040000003049,,"Wooburn Moor, Whitehouse Lane",,51.602189,-0.685373,,,,,,
040000001207,,"Holtspur, The King's Head PH",,51.59974,-0.66832,,,,,,
040000001209,,"Holtspur, North Drive",,51.59955,-0.665019,,,,,,
040000001211,,"Holtspur, Burkes Road",,51.599372,-0.658108,,,,,,
040000001213,,"Beaconsfield Old Town, Butlers Court Road",,51.599453,-0.648706,,,,,,
040000001215,,"Beaconsfield, The Saracen's Head PH",,51.601991,-0.635664,,,,,,
040000001233,,"Beaconsfield, Cricket Ground",,51.601941,-0.629847,,,,,,
040000001347,,"Bulstrode Park, Potkiln Lane",,51.598019,-0.60682,,,,,,
040000001345,,"Bulstrode Park, Crowne Plaza",,51.595208,-0.595761,,,,,,
040000001343,,"Bulstrode Park, Mumfords Lane",,51.591867,-0.582597,,,,,,
040000001341,,"Gerrards Cross, Bulstrode Park",,51.59149,-0.575982,,,,,,
040000001339,,"Gerrards Cross, The Bull Hotel",,51.587806,-0.563669,,,,,,
040000001337,,"Gerrards Cross, Bulstrode Court",,51.584652,-0.560189,,,,,,
040000001335,,"Gerrards Cross, Windsor Road",,51.582551,-0.557498,,,,,,
040000001333,,"Gerrards Cross, East Common",,51.579771,-0.553718,,,,,,
040000001329,,"Tatling End, Heusden Way",,51.575968,-0.541428,,,,,,
040000001327,,"Tatling End, Fulmer Lane",,51.574954,-0.53729,,,,,,
040000001325,,"Tatling End, Pinstone Way",,51.573979,-0.531188,,,,,,
040000001323,,"Tatling End, Toby Carvery",,51.573231,-0.526768,,,,,,
040000001321,,"Tatling End, Mount Lane",,51.571657,-0.519604,,,,,,
040000001307,,"Denham, Denham Avenue",,51.568239,-0.503886,,,,,,
040000001305,,"Denham, Springbridge Nurseries",,51.566068,-0.500754,,,,,,
040000001303,,"New Denham, Knighton Way Lane",,51.556175,-0.490867,,,,,,
040000001301,,"New Denham, Oakside",,51.552806,-0.487589,,,,,,
490015585E,,"Uxbridge, Belmont Road",,51.547432091285,-0.47973700047196,,,,,,
490005185V,,"Uxbridge, York Road",,51.547252577895,-0.476296072909,,,,,,
490005185N,,"Uxbridge, York Road",,51.547528400833,-0.47676279538906,,,,,,
490013969A,,"Uxbridge, High Street",,51.548092282953,-0.48141684937417,,,,,,
040000001302,,"New Denham, Oakside",,51.553419,-0.488434,,,,,,
040000001304,,"New Denham, Knighton Way Lane",,51.555741,-0.490679,,,,,,
040000001306,,"Denham, Springbridge Nurseries",,51.565948,-0.501249,,,,,,
040000001322,,"Tatling End, Mount Lane",,51.571498,-0.520532,,,,,,
040000001324,,"Tatling End, Toby Carvery",,51.572934,-0.526734,,,,,,
040000001326,,"Tatling End, Pinstone Way",,51.573988,-0.532631,,,,,,
040000001300,,"Tatling End, Fulmer Lane",,51.574848,-0.537452,,,,,,
040000001328,,"Tatling End, Heusden Way",,51.576039,-0.542061,,,,,,
040000001330,,"Gerrards Cross, Gaviots Close",,51.577351,-0.548585,,,,,,
040000001332,,"Gerrards Cross, East Common",,51.579876,-0.554206,,,,,,
040000001334,,"Gerrards Cross, Windsor Road",,51.582244,-0.557407,,,,,,
040000001336,,"Gerrards Cross, Bulstrode Court",,51.583697,-0.559309,,,,,,
040000001338,,"Gerrards Cross, The Bull Hotel",,51.586761,-0.562778,,,,,,
040000001340,,"Gerrards Cross, Bulstrode Park",,51.591327,-0.575944,,,,,,
040000001342,,"Bulstrode Park, Mumfords Lane",,51.591676,-0.583166,,,,,,
040000001344,,"Bulstrode Park, Crowne Plaza",,51.5947,-0.595358,,,,,,
040000001346,,"Bulstrode Park, Potkiln Lane",,51.598006,-0.607947,,,,,,
040000001234,,"Beaconsfield, Cricket Ground",,51.601971,-0.630842,,,,,,
040000001216,,"Beaconsfield, The Saracen's Head PH",,51.601601,-0.637726,,,,,,
040000001214,,"Beaconsfield, Butlers Court Road",,51.599096,-0.649727,,,,,,
040000001212,,"Holtspur, Burkes Road",,51.599267,-0.659901,,,,,,
040000001210,,"Holtspur, North Drive",,51.599389,-0.664359,,,,,,
040000001208,,"Holtspur, The King's Head PH",,51.59943,-0.670321,,,,,,
040000003050,,"Wooburn Moor, Whitehouse Lane",,51.602308,-0.686352,,,,,,
040000003048,,"Loudwater, Tesco",,51.605112,-0.691065,,,,,,
040000003242,,"Loudwater, The Papermill",,51.607469,-0.696023,,,,,,
040000003240,,"Loudwater, Loudwater Turn",,51.610499,-0.700803,,,,,,
040000003238,,"Loudwater, Rayners Avenue",,51.611692,-0.703007,,,,,,
040000001232,,"Beaconsfield, Ronald Road",,51.606745,-0.633153,,,,,,
040000001230,,"Beaconsfield, Waller Road",,51.610779,-0.633581,,,,,,
040000001228,,"Beaconsfield, St Mary's School",,51.610514,-0.638644,,,,,,
040000001226,,"Beaconsfield, Maxwell Road",,51.610144,-0.643998,,,,,,
040000001217,,"Beaconsfield Old Town, Aylesbury End",,51.602891,-0.638077,,,,,,
040000001219,,"Beaconsfield, Candlemas Lane",,51.606291,-0.64046,,,,,,
040000001225,,"Beaconsfield, Maxwell Road",,51.610308,-0.643387,,,,,,
040000001227,,"Beaconsfield, St Mary's School",,51.610606,-0.638858,,,,,,
040000001229,,"Beaconsfield, Waller Road",,51.610879,-0.633737,,,,,,
040000000331,,"Beaconsfield, Wilton Park",,51.604365,-0.623805,,,,,,
040000001331,,"Gerrards Cross, Gaviots Close",,51.577628,-0.549139,,,,,,
490013396E,,"Pield Heath, The Greenway",,51.537429874416,-0.47120251050687,,,,,,
490009070S,,"Hillingdon Heath, Lees Road (UB8)",,51.525175186142,-0.44939902128417,,,,,,
490018251S,,"Stockley Park, Stockley Road",,51.503065245443,-0.45089878803253,,,,,,
49000801616,,"Heathrow Airport, Central Bus Station",,51.471677261884,-0.45255244453848,,,,,,
4900801620,,"Heathrow Airport, Central Bus Station",,51.471368683679,-0.45370035070586,,,,,,
490018251N,,"Stockley Park, Stockley Road",,51.503420728847,-0.45126135309122,,,,,,
490007815N1,,"Hillingdon Heath, Lees Road (UB8)",,51.525965108406,-0.45065517152873,,,,,,
490013396N,,"Pield Heath, The Greenway",,51.536579160795,-0.47078402772157,,,,,,
040000000347,,"Beaconsfield, Wilton Park",,51.604186,-0.624047,,,,,,
040000001220,,"Beaconsfield, Candlemas Lane",,51.607099,-0.641143,,,,,,
040000001218,,"Beaconsfield, Aylesbury End",,51.602852,-0.637819,,,,,,
040000001231,,"Beaconsfield, Ronald Road",,51.60625,-0.633096,,,,,,
040000001235,,"Beaconsfield, Beaconsfield Services",,51.589492,-0.629543,,,,,,
040000001237,,"Beaconsfield, Bower Wood",,51.582786,-0.628907,,,,,,
040000001239,,"Farnham Common, Harehatch Lane",,51.575143,-0.623509,,,,,,
040000001241,,"Farnham Common, The Yew Tree PH",,51.572337,-0.621242,,,,,,
040000001243,,"Hedgerley, Clare Drive",,51.566086,-0.617247,,,,,,
040000001253,,"Farnham Common, Hedgerley Corner",,51.56285,-0.615109,,,,,,
040000001255,,"Farnham Common, The Royal Oak PH",,51.560378,-0.615169,,,,,,
040000001257,,"Farnham Common, Templewood Lane",,51.557458,-0.61533,,,,,,
040000001259,,"Farnham Common, The Forester's Arms",,51.553968,-0.615292,,,,,,
040000001261,,"Farnham Common, Kennedy Close",,51.550134,-0.615004,,,,,,
040000001263,,"Farnham Royal, Farnham Park Lane",,51.546621,-0.615241,,,,,,
040000001265,,"Farnham Royal, Fairfield Lane",,51.541445,-0.616234,,,,,,
040000001267,,"Farnham Royal, The Farnham Pump PH",,51.538484,-0.616814,,,,,,
03700374,,"Britwell, St Anthonys RC Church",,51.534462,-0.617641,,,,,,
03700373,,"Britwell, Crofthill Road",,51.531646,-0.61751,,,,,,
03700376,,"Britwell, Farnham Road Lidl",,51.526979,-0.615993,,,,,,
03700377,,"Slough Trading Estate, Farnham Road PO",,51.523399,-0.615179,,,,,,
03700379,,"Slough Trading Estate, Buckingham Avenue Centre",,51.519557,-0.614979,,,,,,
03700380,,"Slough Trading Estate, Salt Hill Three Tuns",,51.513411,-0.612355,,,,,,
03700381,,"Baylis, Windmill Road",,51.51187,-0.608986,,,,,,
03700382,,"Chalvey, Salt Hill Park",,51.511662,-0.604133,,,,,,
03700337,,"Slough, Library",,51.51066,-0.59664,,,,,,
03700527,,"Slough, Bus Station",,51.511434,-0.592844,,,,,,
03700336,,"Slough, Library",,51.510398,-0.596626,,,,,,
03700429,,"Elliman, Gala Bingo Hall",,51.510861,-0.601307,,,,,,
03700430,,"Chalvey, Salt Hill Park",,51.51128,-0.604724,,,,,,
03700431,,"Baylis, Windmill Road",,51.511778,-0.60958,,,,,,
03700256,,"Slough Trading Estate, Salt Hill Three Tuns",,51.513469,-0.612699,,,,,,
03700369,,"Slough Trading Estate, Buckingham Avenue Centre",,51.520533,-0.615353,,,,,,
03700370,,"Slough Trading Estate, Farnham Road PO",,51.524717,-0.6156,,,,,,
03700371,,"Britwell, Farnham Road Lidl",,51.526424,-0.616197,,,,,,
03700372,,"Britwell, Crofthill Road",,51.53127,-0.617651,,,,,,
03700375,,"Britwell, St Anthonys RC Church",,51.534745,-0.617992,,,,,,
040000001268,,"Farnham Royal, The Farnham Pump PH",,51.538513,-0.616958,,,,,,
040000001266,,"Farnham Royal, Fairfield Lane",,51.542533,-0.61623,,,,,,
040000001264,,"Farnham Royal, Farnham Park Lane",,51.546686,-0.615398,,,,,,
040000001262,,"Farnham Common, Kennedy Close",,51.550806,-0.615489,,,,,,
040000001260,,"Farnham Common, The Forester's Arms",,51.553718,-0.615429,,,,,,
040000001258,,"Farnham Common, Templewood Lane",,51.558367,-0.615375,,,,,,
040000001256,,"Farnham Common, The Royal Oak PH",,51.56118,-0.615304,,,,,,
040000001254,,"Farnham Common, Hedgerley Corner",,51.563258,-0.615313,,,,,,
040000001244,,"Hedgerley, Clare Drive",,51.566803,-0.617788,,,,,,
040000001242,,"Farnham Common, The Yew Tree PH",,51.572321,-0.621401,,,,,,
040000001240,,"Farnham Common, Harehatch Lane",,51.574891,-0.623517,,,,,,
040000001238,,"Beaconsfield, Bower Wood",,51.582788,-0.62908,,,,,,
040000001236,,"Beaconsfield, Beaconsfield Services",,51.5915,-0.629771,,,,,,
040000001201,,"Beaconsfield, Hinton House",,51.614688,-0.62565,,,,,,
040000002222,,"Seer Green, Bottom Lane",,51.613662,-0.615628,,,,,,
040000002520,,"Seer Green, Railway Station",,51.611358,-0.608665,,,,,,
040000002518,,"Seer Green, Stable Lane",,51.615677,-0.606626,,,,,,
040000002516,,"Seer Green, Orchard Road",,51.61786,-0.605693,,,,,,
040000002514,,"Seer Green, Manor Road",,51.620584,-0.603356,,,,,,
040000002512,,"Seer Green, Chalfont Road",,51.623662,-0.600545,,,,,,
040000002220,,"Seer Green, Newbarn Lane",,51.624983,-0.594466,,,,,,
040000002510,,"Butlers Cross, Twitchell's Lane",,51.625461,-0.589323,,,,,,
040000002508,,"Chalfont St Giles, Three Households",,51.626877,-0.586707,,,,,,
040000002506,,"Chalfont St Giles, Narcot Lane",,51.629114,-0.582809,,,,,,
040000002504,,"Chalfont St Giles, Dean Way",,51.629697,-0.578918,,,,,,
040000002502,,"Chalfont St Giles, Milton Hill",,51.630369,-0.573595,,,,,,
040000002500,,"Chalfont St Giles, High Street",,51.632019,-0.570263,,,,,,
040000002483,,"Chalfont St Giles, London Road",,51.633662,-0.566353,,,,,,
040000002481,,"Chalfont St Giles, King's Road",,51.631437,-0.564531,,,,,,
040000002479,,"Chalfont St Giles, Green Meadows",,51.626835,-0.56248,,,,,,
040000002477,,"Chalfont Common, Cherry Acre",,51.623302,-0.55963,,,,,,
040000002475,,"Chalfont Common, Misbourne Avenue",,51.619672,-0.557679,,,,,,
040000002473,,"Chalfont Common, Deanacre Close",,51.615132,-0.557014,,,,,,
040000002457,,"Chalfont Common, The Waggon & Horses PH",,51.611596,-0.556058,,,,,,
040000002455,,"Chalfont St Peter, Market Place",,51.606879,-0.557912,,,,,,
040000002453,,"Chalfont St Peter, Lansdown Road",,51.60603,-0.562675,,,,,,
040000002451,,"Chalfont St Peter, Glebe Road",,51.607223,-0.56837,,,,,,
040000002441,,"Chalfont St Peter, Leachcroft",,51.606723,-0.570134,,,,,,
040000002449,,"Chalfont St Peter, Gold Hill West",,51.605172,-0.567554,,,,,,
040000002447,,"Chalfont St Peter, The Jolly Farmer",,51.602967,-0.565198,,,,,,
040000002445,,"Chalfont St Peter, St Joseph's Church",,51.600193,-0.561834,,,,,,
040000002443,,"Chalfont St Peter, Austenwood Common",,51.597092,-0.556864,,,,,,
040000001441,,"Gerrards Cross, St Mary's School",,51.59329,-0.554025,,,,,,
040000001443,,"Gerrards Cross, South Park Crescent",,51.591015,-0.552596,,,,,,
040000001439,,"Gerrards Cross, Railway Station",,51.588208,-0.553191,,,,,,
040000001437,,"Gerrards Cross, The Packhorse PH",,51.586593,-0.554931,,,,,,
040000001438,,"Gerrards Cross, The Packhorse PH",,51.586844,-0.554865,,,,,,
040000001440,,"Gerrards Cross, Railway Station",,51.589034,-0.552333,,,,,,
040000001444,,"Gerrards Cross, South Park Crescent",,51.590844,-0.552587,,,,,,
040000001442,,"Gerrards Cross, St Mary's School",,51.593997,-0.554551,,,,,,
040000002444,,"Chalfont St Peter, Austenwood Common",,51.597343,-0.557492,,,,,,
040000002446,,"Chalfont St Peter, St Joseph's Church",,51.60015,-0.562009,,,,,,
040000002448,,"Chalfont St Peter, The Jolly Farmer",,51.602941,-0.565285,,,,,,
040000002450,,"Chalfont St Peter, Gold Hill West",,51.605276,-0.567926,,,,,,
040000002440,,"Chalfont St Peter, Leachcroft",,51.606725,-0.570249,,,,,,
040000002452,,"Chalfont St Peter, Glebe Road",,51.607495,-0.569286,,,,,,
040000002454,,"Chalfont St Peter, Lansdown Road",,51.606126,-0.561026,,,,,,
040000002456,,"Chalfont St Peter, Market Place",,51.607151,-0.557354,,,,,,
040000002458,,"Chalfont Common, The Waggon & Horses PH",,51.611904,-0.556279,,,,,,
040000002472,,"Chalfont Common, Deanacre Close",,51.615523,-0.557363,,,,,,
040000002474,,"Chalfont Common, Misbourne Avenue",,51.619017,-0.557744,,,,,,
040000002476,,"Chalfont Common, Cherry Acre",,51.623956,-0.560144,,,,,,
040000002478,,"Chalfont St Giles, Green Meadows",,51.626937,-0.562737,,,,,,
040000002480,,"Chalfont St Giles, King's Road",,51.630616,-0.564282,,,,,,
040000002482,,"Chalfont St Giles, London Road",,51.633022,-0.5662,,,,,,
040000002501,,"Chalfont St Giles, High Street",,51.631705,-0.570287,,,,,,
040000002503,,"Chalfont St Giles, Milton Hill",,51.630366,-0.573306,,,,,,
040000002505,,"Chalfont St Giles, Dean Way",,51.629567,-0.579327,,,,,,
040000002507,,"Chalfont St Giles, Narcot Lane",,51.628434,-0.583812,,,,,,
040000002218,,"Chalfont St Giles, Three Households",,51.626674,-0.586973,,,,,,
040000002509,,"Butlers Cross, Twitchell's Lane",,51.625176,-0.589577,,,,,,
040000002219,,"Seer Green, Newbarn Lane",,51.624887,-0.5947,,,,,,
040000002511,,"Seer Green, Newbarn Lane",,51.623322,-0.600671,,,,,,
040000002513,,"Seer Green, Manor Road",,51.620326,-0.60358,,,,,,
040000002515,,"Seer Green, Orchard Road",,51.617167,-0.605613,,,,,,
040000002517,,"Seer Green, Stable Lane",,51.615067,-0.60676,,,,,,
040000002519,,"Seer Green, Railway Station",,51.611374,-0.609242,,,,,,
040000002221,,"Seer Green, Bottom Lane",,51.613837,-0.616764,,,,,,
040000001200,,"Beaconsfield, Hinton House",,51.614956,-0.626277,,,,,,
040000002609,,"Amersham, Village Hall",,51.671801,-0.585975,,,,,,
040000002611,,"Amersham, The Pineapple PH",,51.671133,-0.582713,,,,,,
040000002613,,"Amersham, Chiltern Heights",,51.670444,-0.579321,,,,,,
040000002615,,"Amersham, The White Lion PH",,51.669538,-0.57504,,,,,,
040000002617,,"Little Chalfont, Cokes Lane",,51.667552,-0.567005,,,,,,
040000002595,,"Little Chalfont, Nightingales Lane",,51.661826,-0.569354,,,,,,
040000002228,,"Chalfont St Giles, Vache Lane",,51.63462,-0.565283,,,,,,
040000002460,,"Chalfont Common, Copthall Lane",,51.611839,-0.551717,,,,,,
040000002462,,"Chalfont Common, Ninnings Road",,51.611814,-0.546822,,,,,,
040000002464,,"Chalfont Common, Denham Walk",,51.615402,-0.547516,,,,,,
040000002466,,"Chalfont Common, Bus Shelter",,51.61809,-0.549641,,,,,,
040000002468,,"Chalfont Common, The Pyghtle",,51.616325,-0.552383,,,,,,
040000002470,,"Chalfont Common, Hillside Close",,51.614499,-0.55377,,,,,,
040000001435,,"Gerrards Cross, Camp Road",,51.582381,-0.559091,,,,,,
040000001433,,"Gerrards Cross, Manor Lane",,51.579015,-0.562474,,,,,,
040000001431,,"Gerrards Cross, Hedgerley Lane",,51.577291,-0.564145,,,,,,
040000001429,,"Gerrards Cross, Dukes Kiln Drive",,51.575039,-0.568949,,,,,,
040000001427,,"Stoke Poges, Mount Hill Farm",,51.571853,-0.576884,,,,,,
040000001425,,"Stoke Poges, Parkside Cemetery",,51.566858,-0.581758,,,,,,
040000001423,,"Stoke Poges, The Fox & Pheasant PH",,51.560976,-0.583889,,,,,,
040000001421,,"Stoke Poges, Larchmoor Park",,51.559135,-0.584033,,,,,,
040000001419,,"Stoke Poges, Vine Road",,51.554454,-0.584366,,,,,,
040000001417,,"Stoke Poges, Pennylets Green",,51.550347,-0.584623,,,,,,
040000000326,,"Stoke Poges, Khalsa Secondary Academy",,51.5482611,-0.577451,,,,,,
040000001277,,"Wexham Street, The Stag PH",,51.544675,-0.571401,,,,,,
040000001275,,"Wexham Street, Plough Lane",,51.542075,-0.573516,,,,,,
040000001273,,"Wexham Street, Berry Farm",,51.537251,-0.575412,,,,,,
03700051,,"Wexham Court, Wexham Park Hospital",,51.532404,-0.575704,,,,,,
03700048,,"Wexham Court, Wexham Post Office",,51.529616,-0.578617,,,,,,
03700046,,"Wexham Court, Extra Care Centre",,51.526204,-0.580554,,,,,,
03700053,,"Wexham Court, Knolton Way North",,51.522322,-0.579219,,,,,,
03700055,,"Wexham Court, Prestwood",,51.520983,-0.57854,,,,,,
03700057,,"Wexham Court, Sheehy Way",,51.519282,-0.57473,,,,,,
03700466,,"Wexham Court, Knolton Way",,51.518946,-0.57154,,,,,,
03700036,,"Wexham Court, Dornels",,51.520247,-0.569799,,,,,,
03700038,,"Wexham Court, Berryfield Veterinary Centre",,51.522276,-0.571004,,,,,,
03700040,,"Wexham Court, Knolton Way Shops",,51.522984,-0.574484,,,,,,
03700042,,"Wexham Court, The Normans",,51.52316,-0.577881,,,,,,
03700044,,"Wexham Court, The Frithe",,51.523014,-0.579947,,,,,,
03700069,,"Wexham Court, Borderside",,51.520685,-0.579947,,,,,,
03700067,,"Wexham Court, Mirador Crescent Roundabout",,51.517705,-0.578209,,,,,,
03700061,,"Upton Lea, Carlton Road",,51.515768,-0.578455,,,,,,
03700468,,"Upton Lea, Beresford Avenue",,51.514622,-0.574558,,,,,,
03700032,,"Upton Lea, Goodman Park",,51.51191,-0.574888,,,,,,
03700456,,"Slough, Diamond Road Mosque",,51.509129,-0.579182,,,,,,
03700310,,"Slough, Sorting Office",,51.509059,-0.585325,,,,,,
03700340,,"Slough, Queensmere Car Park",,51.509804,-0.590358,,,,,,
03700311,,"Slough, Sorting Office",,51.509291,-0.585821,,,,,,
03700457,,"Slough, Diamond Road Mosque",,51.50961,-0.578764,,,,,,
03700031,,"Upton Lea, Goodman Park",,51.512057,-0.575128,,,,,,
03700060,,"Upton Lea, Beresford Avenue",,51.514353,-0.573889,,,,,,
03700494,,"Upton Lea, Carlton Road",,51.515305,-0.577491,,,,,,
03700065,,"Upton Lea, Lea School",,51.516606,-0.578784,,,,,,
03700066,,"Wexham Court, Mirador Crescent Roundabout",,51.518283,-0.578407,,,,,,
03700068,,"Wexham Court, Borderside",,51.52036,-0.579871,,,,,,
03700045,,"Wexham Court, Norway Drive",,51.525007,-0.581139,,,,,,
03700506,,"Wexham Court, Extra Care Centre",,51.526946,-0.580185,,,,,,
03700047,,"Wexham Court, Wexham Post Office",,51.530094,-0.578703,,,,,,
040000001274,,"Wexham Street, Berry Farm",,51.537874,-0.575594,,,,,,
040000001276,,"Wexham Street, Plough Lane",,51.542371,-0.573464,,,,,,
040000001278,,"Wexham Street, The Stag PH",,51.545381,-0.571076,,,,,,
040000001280,,"Wexham Street, Hollybush Hill",,51.54772,-0.569633,,,,,,
040000000325,,"Stoke Poges, Khalsa Secondary Academy",,51.5482161,-0.5774653,,,,,,
040000001416,,"Stoke Poges, Pennylets Green",,51.550431,-0.584808,,,,,,
040000001418,,"Stoke Poges, Vine Road",,51.554455,-0.58451,,,,,,
040000001420,,"Stoke Poges, Larchmoor Park",,51.559406,-0.584154,,,,,,
040000001422,,"Stoke Poges, The Fox & Pheasant PH",,51.561436,-0.584019,,,,,,
040000001424,,"Stoke Poges, Parkside Cemetery",,51.566137,-0.582372,,,,,,
040000001426,,"Stoke Poges, Mount Hill Farm",,51.571585,-0.577802,,,,,,
040000001428,,"Gerrards Cross, Dukes Kiln Drive",,51.575051,-0.569266,,,,,,
040000001430,,"Gerrards Cross, Hedgerley Lane",,51.577631,-0.56399,,,,,,
040000001432,,"Gerrards Cross, Manor Lane",,51.578777,-0.562871,,,,,,
040000001434,,"Gerrards Cross, Camp Road",,51.581744,-0.559905,,,,,,
040000002227,,"Chalfont St Giles, Vache Lane",,51.635013,-0.565054,,,,,,
040000002594,,"Little Chalfont, Nightingales Lane",,51.661899,-0.569424,,,,,,
040000002618,,"Little Chalfont, Cokes Lane",,51.667315,-0.566723,,,,,,
040000002616,,"Amersham, The White Lion PH",,51.669919,-0.577559,,,,,,
040000002614,,"Amersham, Chiltern Heights",,51.670404,-0.579727,,,,,,
040000002612,,"Amersham, The Pineapple PH",,51.671208,-0.583708,,,,,,
040000002610,,"Amersham, Village Hall",,51.671894,-0.586969,,,,,,
040000002608,,"Amersham, Blackhorse Bridge",,51.672548,-0.591259,,,,,,
040000001299,,"Gerrards Cross, Gaviots Green",,51.576339,-0.551042,,,,,,
040000001297,,"Gerrards Cross, St Hubert's Close",,51.573117,-0.550134,,,,,,
040000001295,,"Gerrards Cross, Fulmer Drive",,51.568595,-0.550206,,,,,,
040000001293,,"Gerrards Cross, Oldhouse Farm",,51.5661,-0.552089,,,,,,
040000001291,,"Fulmer, Old Post Office",,51.562391,-0.556838,,,,,,
040000001289,,"Fulmer, The Black Horse PH",,51.56098,-0.561297,,,,,,
040000001287,,"Fulmer, Windmill Road",,51.558281,-0.564844,,,,,,
040000001285,,"Fulmer, Fulmer Common Road",,51.556597,-0.566066,,,,,,
040000001283,,"Fulmer, Mill House Farm",,51.552081,-0.567448,,,,,,
040000001281,,"Wexham Street, Fulmer Grange",,51.55036,-0.567906,,,,,,
040000001279,,"Wexham Street, Hollybush Hill",,51.548291,-0.569283,,,,,,
040000001415,,"Stoke Poges, Sefton Park",,51.548221,-0.585049,,,,,,
040000001413,,"Stoke Poges, Decies Way",,51.54449,-0.58655,,,,,,
040000001411,,"Stoke Poges, Rogers Lane South",,51.5425,-0.587808,,,,,,
040000001409,,"Stoke Poges, Church Lane",,51.538568,-0.586156,,,,,,
040000001407,,"Stoke Poges, Park Road",,51.535908,-0.585561,,,,,,
040000001405,,"Stoke Poges, Stoke House",,51.532814,-0.585441,,,,,,
040000001450,,"Stoke Poges, Wexham Roundabout",,51.53087,-0.579374,,,,,,
040000001414,,"Stoke Poges, Sefton Park",,51.54737,-0.585292,,,,,,
040000001290,,"Fulmer, The Black Horse PH",,51.561289,-0.560811,,,,,,
040000001404,,"Stoke Poges, Stoke House",,51.532331,-0.585657,,,,,,
040000001406,,"Stoke Poges, Park Road",,51.535408,-0.585822,,,,,,
040000001408,,"Stoke Poges, Church Lane",,51.538252,-0.586036,,,,,,
040000001410,,"Stoke Poges, Rogers Lane South",,51.543084,-0.587761,,,,,,
040000001412,,"Stoke Poges, Decies Way",,51.545401,-0.586074,,,,,,
040000001282,,"Wexham Street, Fulmer Grange",,51.54949,-0.568813,,,,,,
040000001284,,"Fulmer, Mill House Farm",,51.552441,-0.567466,,,,,,
040000001286,,"Fulmer, Fulmer Common Road",,51.556652,-0.566194,,,,,,
040000001288,,"Fulmer, Windmill Road",,51.558531,-0.564721,,,,,,
040000001292,,"Fulmer, Old Post Office",,51.562299,-0.557403,,,,,,
040000001294,,"Gerrards Cross, Oldhouse Farm",,51.56612,-0.552247,,,,,,
040000001360,,"Gerrards Cross, Fulmer Drive",,51.569041,-0.549903,,,,,,
040000001296,,"Gerrards Cross, St Hubert's Close",,51.573137,-0.550292,,,,,,
040000001298,,"Gerrards Cross, Gaviots Green",,51.577031,-0.551756,,,,,,
040000002898,,"Hazlemere, The Warren",,51.658966,-0.714771,,,,,,
040000003076,,"Hazlemere, Cedar Avenue",,51.659404,-0.717867,,,,,,
040000002899,,"Hazlemere, Roberts Ride",,51.660456,-0.717838,,,,,,
040000003722,,"Widmer End, Western Dene",,51.661125,-0.712368,,,,,,
040000003139,,"Tylers Green, William Ramsay School",,51.647739,-0.710174,,,,,,
040000003141,,"Tylers Green, Pine Walk",,51.646586,-0.707562,,,,,,
040000003143,,"Tylers Green, Rose Avenue Shops",,51.64433,-0.703565,,,,,,
040000003145,,"Tylers Green, Curzon Avenue",,51.646234,-0.698481,,,,,,
040000003147,,"Tylers Green, Hazlemere Road",,51.645881,-0.696641,,,,,,
040000003149,,"Tylers Green, Coppice Farm Road",,51.643255,-0.695054,,,,,,
040000003151,,"Tylers Green, Potters Cross",,51.639315,-0.694055,,,,,,
040000003153,,"Penn, Hillcroft Road",,51.638109,-0.698005,,,,,,
040000003155,,"Penn, Church Road",,51.636477,-0.700884,,,,,,
040000003157,,"Penn, School Road",,51.635505,-0.694323,,,,,,
040000003961,,"Penn, The Pond",,51.634913,-0.691219,,,,,,
040000002206,,"Knotty Green, The Red Lion PH",,51.622522,-0.654551,,,,,,
040000001224,,"Beaconsfield, Waitrose",,51.611977,-0.646977,,,,,,
040000001222,,"Beaconsfield, Post Office",,51.610803,-0.645784,,,,,,
040000001198,,"Beaconsfield, High School",,51.603585,-0.642894,,,,,,
040000001199,,"Beaconsfield, High School",,51.60365,-0.643022,,,,,,
040000001221,,"Beaconsfield, Post Office",,51.610679,-0.645918,,,,,,
040000001223,,"Beaconsfield, Waitrose",,51.611871,-0.647182,,,,,,
040000002205,,"Knotty Green, The Red Lion PH",,51.621816,-0.654152,,,,,,
040000003159,,"Penn, The Pond",,51.634806,-0.691323,,,,,,
040000003154,,"Penn, School Road",,51.635416,-0.694369,,,,,,
040000003152,,"Penn, New Road",,51.636897,-0.701407,,,,,,
040000003150,,"Penn, Hillcroft Road",,51.638059,-0.698383,,,,,,
040000003148,,"Tylers Green, Potters Cross",,51.639517,-0.69363,,,,,,
040000003146,,"Tylers Green, Coppice Farm Road",,51.643963,-0.695612,,,,,,
040000003144,,"Tylers Green, Hazlemere Road",,51.645547,-0.696549,,,,,,
040000003142,,"Tylers Green, Curzon Avenue",,51.646255,-0.697974,,,,,,
040000003140,,"Tylers Green, Rose Avenue Shops",,51.64401,-0.701522,,,,,,
040000003138,,"Tylers Green, Pine Walk",,51.646114,-0.707185,,,,,,
040000001350,,"Higher Denham, Community Centre",,51.57859,-0.515844,,,,,,
040000001312,,"Denham, Old Rectory Lane",,51.575298,-0.503929,,,,,,
040000001352,,"Denham Green, Tilehouse Lane",,51.578129,-0.505885,,,,,,
040000001355,,"Denham Green, Alex Korda House",,51.582274,-0.505908,,,,,,
040000001354,,"Denham Green, Tilehouse Combined School",,51.583279,-0.505038,,,,,,
040000001351,,"Denham Green, Wyatts Covert",,51.593466,-0.508847,,,,,,
040000001356,,"Denham Green, Garden Village",,51.585118,-0.501697,,,,,,
040000001317,,"Denham Green, Penn Drive",,51.581569,-0.502799,,,,,,
040000001313,,"Denham, Station Parade",,51.579593,-0.500165,,,,,,
040000001311,,"Denham, Old Rectory Lane",,51.575206,-0.503787,,,,,,
040000001309,,"Denham, Village Road",,51.5713,-0.504882,,,,,,
040000001363,,"Denham, Cheapside Lane",,51.568798,-0.501934,,,,,,
040000001364,,"Denham, Ashmead Lane",,51.571128,-0.501309,,,,,,
040000001357,,"Denham, Memorial Hall",,51.57188,-0.501795,,,,,,
040000001361,,"Denham, St Mary's Church",,51.572197,-0.496988,,,,,,
040000001359,,"Denham, Priory Close",,51.565112,-0.497785,,,,,,
040000001349,,"Denham, Priory Close",,51.56506,-0.497931,,,,,,
040000001362,,"Denham, St Mary's Church",,51.5723,-0.497317,,,,,,
040000001358,,"Denham, Memorial Hall",,51.571902,-0.502049,,,,,,
040000001310,,"Denham, Village Road",,51.571725,-0.505085,,,,,,
040000005037,,"Richings Park, Thorney Lane South",,51.504997,-0.502553,,,,,,
040000001843,,"Richings Park, Bathurst Walk",,51.507773,-0.504355,,,,,,
040000001847,,"Iver, The Fox & Pheasant PH",,51.516663,-0.503458,,,,,,
040000001846,,"Iver, Tower House",,51.519765,-0.510505,,,,,,
040000001850,,"Iver, Croft House",,51.522332,-0.514371,,,,,,
040000001813,,"Iver, Junior School",,51.520928,-0.513566,,,,,,
040000001815,,"Iver, King's Church",,51.520735,-0.508283,,,,,,
040000001845,,"Iver, Chequers Orchard",,51.520621,-0.507119,,,,,,
040000001849,,"Iver, Iver Lane",,51.527007,-0.492494,,,,,,
490012611N,,"Cowley, Station Road Cowley",,51.529765438485,-0.48204109631616,,,,,,
490006802N,,"Cowley, Ferndale Crescent",,51.534851260939,-0.48244866245722,,,,,,
490005688N,,"Uxbridge Moor, Cowley Mill Road",,51.538356865284,-0.48234649315869,,,,,,
490014592N,,"Uxbridge, Whitehall School",,51.541094923862,-0.48199585096644,,,,,,
490005845P,,"Uxbridge, Crown Walk",,51.545543691521,-0.48251121023876,,,,,,
040000001838,,"Iver Heath, The Black Horse PH",,51.537817,-0.515857,,,,,,
040000001836,,"Iver Heath, Trewarden Avenue",,51.540925,-0.518424,,,,,,
040000001834,,"Iver Heath, St David's Close",,51.542723,-0.519807,,,,,,
040000001832,,"Iver Heath, The Parkway",,51.539431,-0.524573,,,,,,
040000001830,,"Iver Heath, British Legion",,51.536879,-0.527725,,,,,,
040000001809,,"Iver, Langley Park Road",,51.519358,-0.521732,,,,,,
040000001811,,"Iver, Post Office",,51.520114,-0.516764,,,,,,
490013969B,,"Uxbridge, High Street",,51.547964768527,-0.48129129272315,,,,,,
490010686Q,,"Uxbridge, Crown Walk",,51.545767092387,-0.48240282637004,,,,,,
490008257S,,"Uxbridge, Hinton Road",,51.542968057092,-0.48151532011323,,,,,,
490014592S,,"Uxbridge, Whitehall School",,51.540588411845,-0.48176756149259,,,,,,
490005688S,,"Uxbridge Moor, Cowley Mill Road",,51.538316810339,-0.48203059889295,,,,,,
490006802S,,"Cowley, Ferndale Crescent",,51.533402474159,-0.48236707851148,,,,,,
490012611S,,"Cowley, Station Road Cowley",,51.529844095306,-0.48186547988073,,,,,,
490016045W,,"Cowley, Iver Lane",,51.529626197015,-0.48379014046488,,,,,,
040000001800,,"Iver, Iver Lane",,51.526906,-0.492296,,,,,,
040000001816,,"Iver, King's Church",,51.520605,-0.508676,,,,,,
040000001848,,"Iver, The Fox & Pheasant PH",,51.517281,-0.503322,,,,,,
040000001844,,"Richings Park, Richings Park",,51.507782,-0.50402,,,,,,
040000005040,,"Richings Park, Thorney Lane South",,51.5049263,-0.5024098,,,,,,
040000001812,,"Iver, Post Office",,51.519953,-0.516827,,,,,,
040000001810,,"Iver, Langley Park Road",,51.519235,-0.521938,,,,,,
040000001831,,"Iver Heath, The Parkway",,51.540479,-0.523701,,,,,,
040000001833,,"Iver Heath, St David's Close",,51.541759,-0.518988,,,,,,
040000001837,,"Iver Heath, The Black Horse PH",,51.537317,-0.515412,,,,,,
040000001196,,"Beaconsfield, Whipass Hill",,51.616324,-0.632591,,,,,,
040000001194,,"Beaconsfield, Wilton Road",,51.615647,-0.64005,,,,,,
040000001192,,"Beaconsfield, Sandelswood End",,51.615012,-0.644315,,,,,,
040000001190,,"Beaconsfield, Penn Road",,51.613861,-0.647397,,,,,,
040000003833,,"Loudwater, Station Road",,51.606721,-0.700752,,,,,,
040000003887,,"Flackwell Heath, Swains Lane",,51.602673,-0.707871,,,,,,
040000003866,,"Flackwell Heath, The Stag PH",,51.604725,-0.717083,,,,,,
040000003893,,"Flackwell Heath, Rugwood Road",,51.605426,-0.718709,,,,,,
040000003868,,"Flackwell Heath, Bucks College Group",,51.606326,-0.722049,,,,,,
040000003424,,"High Wycombe, St Michael's School",,51.618478,-0.753413,,,,,,
040000003939,,"High Wycombe, Marlow Hill Schools",,51.619166,-0.760646,,,,,,
040000003420,,"High Wycombe, Marlow Hill Schools",,51.618497,-0.761964,,,,,,
040000003435,,"High Wycombe, St Michael's School",,51.618539,-0.753209,,,,,,
040000005024,,"High Wycombe, Pine Trees",,51.616355,-0.7483,,,,,,
040000003872,,"Flackwell Heath, Bucks College Group",,51.606331,-0.721731,,,,,,
040000003892,,"Flackwell Heath, Rugwood Road",,51.605699,-0.719005,,,,,,
040000003878,,"Flackwell Heath, The Stag PH",,51.604686,-0.716795,,,,,,
040000003884,,"Flackwell Heath, Swains Lane",,51.602997,-0.707067,,,,,,
040000003812,,"Loudwater, Station Road",,51.606697,-0.700998,,,,,,
040000001189,,"Beaconsfield, Penn Road",,51.614013,-0.647292,,,,,,
040000001191,,"Beaconsfield, Sandelswood End",,51.61499,-0.644735,,,,,,
040000001193,,"Beaconsfield, Wilton Road",,51.615724,-0.64051,,,,,,
040000001195,,"Beaconsfield, Wilton Place",,51.615947,-0.635708,,,,,,
040000003380,,"Booker, Westwood",,51.612974,-0.789367,,,,,,
040000003393,,"Booker, Westwood",,51.613032,-0.788933,,,,,,
035091120002,,"Twyford, Twyford Station",,51.475196855458,-0.8629985544193,,,,,,
035059890002,,"Wokingham, Station Interchange",,51.412328513432,-0.84311908307031,,,,,,
035059740002,,"Bigshotte Park, Johnson & Johnson",,51.384246225134,-0.79578676322562,,,,,,
035059740001,,"Bigshotte Park, Johnson & Johnson",,51.383933212959,-0.79945942421936,,,,,,
035075400003,,"Wokingham Town Centre, Broad Street",,51.41108298113,-0.83538593772095,,,,,,
34000000005,,"Oxford City Centre, Gloucester Green Bus Station",,51.753941106,-1.2625115,,,,,,
340001989S4,,"Oxford City Centre, Westgate",,51.748713543,-1.261930277,,,,,,
340001989S2,,"Oxford City Centre, Speedwell Street",,51.748456278,-1.258197253,,,,,,
340001992K5,,"Oxford City Centre, Queens Lane",,51.752715524,-1.250695824,,,,,,
340001317OUT,,"St Clements, St Clements Street",,51.750605558,-1.23995312,,,,,,
340001313EAS,,"Headington, Brookes University",,51.756052961,-1.224606066,,,,,,
340001309COO,,"Headington, Headington Shops",,51.760636449,-1.209444257,,,,,,
340001310NRC,,"Headington, Green Road Roundabout",,51.762634191,-1.199063578,,,,,,
340000009PR4,,"Thornhill Park & Ride, Thornhill Park and Ride",,51.761980234,-1.181136878,,,,,,
340001811CHN,,"Lewknor, Lewknor Turn M40 J6",,51.673273537,-0.95874294,,,,,,
040000000902,,"High Wycombe, Coachway",,51.614144809,-0.764004841,,,,,,
49001643010,,"Heathrow Airport Terminal 5, Heathrow Terminal 5",,51.471368716,-0.489580818,,,,,,
490010197E,,"Sipson, Newbury Road  Compass Centre",,51.481097009,-0.465929314,,,,,,
49000801615,,"Heathrow Airport, Heathrow Central Bus Station",,51.471103576,-0.454054832,,,,,,
4400CY0361,,"Gatwick Airport, South Terminal Coach Station",,51.156879283,-0.159553013,,,,,,
4400CY0375,,"Gatwick Airport, North Terminal Bus Station",,51.160483575,-0.176657437,,,,,,
490010245N,,"Newport Road",,51.480330312,-0.459575344,,,,,,
490005530W,,"Harmondsworth, Compass Centre",,51.481494197,-0.469487553,,,,,,
340001811WAT,,"Lewknor, Lewknor Turn M40 J6",,51.671490175,-0.96348366,,,,,,
340000009PR3,,"Thornhill Park & Ride, Thornhill Park and Ride",,51.761664772,-1.181026666,,,,,,
340001308CNR,,"Headington, Gladstone Road",,51.761970294,-1.203248356,,,,,,
340001309COI,,"Headington, Headington Shops",,51.760265188,-1.210392534,,,,,,
340001313WES,,"Headington, Brookes University",,51.75531447,-1.227154032,,,,,,
340001126DAW,,"St Clements, St Clements Street",,51.750178498,-1.242046254,,,,,,
340001992J1,,"Oxford City Centre, Queens Lane",,51.752590767,-1.250871727,,,,,,
340000004H5,,"Oxford City Centre, St Aldates",,51.750272442,-1.256762378,,,,,,
03700526,,"Slough Bus Station",,51.511399,-0.59286,,,,,,
040000002968,,"High Wycombe Bus Station",,51.631527,-0.75609,,,,,,
03700528,,"Slough Bus Station Park",,51.511479,-0.592843,,,,,,
4900164309,,"Heathrow, Terminal 5",,51.471841501835,-0.48998279766331,,,,,,
040000002904,,"Dashwood Hill",,51.648476,-0.856934,,,,,,
040000002965,,"High Wycombe BusStn",,51.631456,-0.756222,,,,,,
040000003326,,"Downley Turn",,51.640128,-0.781477,,,,,,
040000003328,,"Railway Bridge",,51.641282,-0.785247,,,,,,
040000003330,,"Park Farm Road",,51.64226,-0.788516,,,,,,
040000003332,,"Beechwood Road",,51.643972,-0.794121,,,,,,
040000003337,,"Railway Bridge",,51.641119,-0.785106,,,,,,
040000003339,,"Park Farm Road",,51.642068,-0.788217,,,,,,
040000003341,,"Beechwood Road",,51.643911,-0.79431,,,,,,
040000003444,,"Village Hall",,51.64472,-0.801313,,,,,,
040000003446,,"Piddington Turn",,51.639965,-0.822754,,,,,,
040000003448,,"King Street",,51.64031,-0.829436,,,,,,
040000003452,,"The Dashwood Arms PH",,51.641468,-0.833756,,,,,,
040000003454,,"Dashwood Hill",,51.648907,-0.85779,,,,,,
040000003455,,"Piddington Turn",,51.63985,-0.822974,,,,,,
040000003456,,"The Studley Arms",,51.649944,-0.860843,,,,,,
040000003457,,"King Street",,51.640091,-0.829124,,,,,,
040000003458,,"St Francis Road",,51.650906,-0.864577,,,,,,
040000003460,,"Bates Industrial Estate",,51.658962,-0.898582,,,,,,
040000003461,,"The Dashwood Arms PH",,51.641406,-0.833873,,,,,,
040000003462,,"Medical Centre",,51.661535,-0.909319,,,,,,
040000003464,,"Wycombe Road",,51.65711,-0.888088,,,,,,
040000003465,,"St Francis Road",,51.65065,-0.864179,,,,,,
040000003467,,"Wycombe Road",,51.657015,-0.887512,,,,,,
040000003468,,"The King's Arms Hotel",,51.660168,-0.901487,,,,,,
040000003471,,"Bates Industrial Estate",,51.65891,-0.898742,,,,,,
040000003473,,"The King's Arms Hotel",,51.660232,-0.902628,,,,,,
040000003475,,"Medical Centre",,51.661248,-0.908386,,,,,,
040000003486,,"Marlow Road",,51.657091,-0.896487,,,,,,
040000003488,,"Marcourt Road",,51.653711,-0.893751,,,,,,
040000003490,,"Jubilee Road",,51.652968,-0.892236,,,,,,
040000003493,,"Marlow Road",,51.657328,-0.896843,,,,,,
040000003495,,"Marcourt Road",,51.653042,-0.893391,,,,,,
040000003512,,"Jubilee Road",,51.652985,-0.892091,,,,,,
040000003514,,"New Road",,51.655419,-0.889907,,,,,,
040000003517,,"New Road",,51.655875,-0.889621,,,,,,
040000003753,,"The Swan Inn",,51.644544,-0.80337,,,,,,
040000003916,,"Tower Farm",,51.662057,-0.915148,,,,,,
040000003918,,"Aston Hill",,51.667037,-0.922881,,,,,,
340000041OSP,,"Springfield Gardens",,51.70557,-0.91003,,,,,,
340000041SPG,,"Springfield Gardens",,51.70539,-0.91094,,,,,,
340000115OUS,,"Sycamore Drive",,51.74833,-0.98818,,,,,,
340000115WLS,,"Lord Williams Upper School",,51.74706,-0.99439,,,,,,
340000115WUS,,"Sycamore Drive",,51.748,-0.98908,,,,,,
340000436CHT,,"The Cherry Tree",,51.68844,-0.9326,,,,,,
340000436OCH,,"The Cherry Tree",,51.68855,-0.93261,,,,,,
340000437CHU,,"St Marys Church",,51.69096,-0.92593,,,,,,
340000437HST,,"Pleck Lane",,51.68927,-0.93166,,,,,,
340000437OPP,,"St Marys Church",,51.691,-0.9261,,,,,,
340000518INN,,"The Inn at Emmington",,51.71439,-0.93373,,,,,,
340000518OIN,,"The Inn at Emmington",,51.71444,-0.93357,,,,,,
340000749OPP,,"Town Hall",,51.74771,-0.97891,,,,,,
340000749TH,,"Town Hall",,51.7475,-0.97837,,,,,,
340001616OUT,,"Police Station",,51.74975,-0.9777,,,,,,
340001619OPP,,"Health Centre",,51.74549,-0.96717,,,,,,
340001619OUT,,"Health Centre",,51.74516,-0.96939,,,,,,
340001621NEL,,"Upper High Street",,51.74596,-0.97582,,,,,,
340001625OPP,,"Chiltern Hill Garage",,51.69902,-0.91369,,,,,,
340001625OUT,,"Chiltern Hill Garage",,51.69905,-0.91383,,,,,,
340001626OPP,,"Village Hall",,51.70143,-0.90816,,,,,,
340001626OUT,,"Village Hall",,51.70132,-0.90819,,,,,,
340001627OPP,,"The Village Centre",,51.70277,-0.90519,,,,,,
340001627OUT,,"The Village Centre",,51.70282,-0.90538,,,,,,
340001642OPP,,"Glimbers Green",,51.69823,-0.91562,,,,,,
340001642OUT,,"Glimbers Green",,51.6982,-0.91549,,,,,,
340001643DCL,,"The Red Lion",,51.70591,-0.90808,,,,,,
340001643GLY,,Glynswood,,51.70001,-0.91119,,,,,,
340001643OPD,,"The Red Lion",,51.70569,-0.90798,,,,,,
340001643OPP,,Glynswood,,51.69995,-0.91162,,,,,,
340001656OPP,,Museum,,51.74928,-0.98181,,,,,,
340001656OUT,,Museum,,51.7491,-0.98099,,,,,,
340001657OPP,,"Cuttle Brook",,51.7494,-0.98527,,,,,,
340001657OUT,,"Cuttle Brook",,51.74941,-0.98549,,,,,,
340001660WFM,,"Waterlands Farm",,51.7234,-0.94086,,,,,,
340001660WFO,,"Waterlands Farm",,51.72329,-0.94087,,,,,,
340001662NOR,,"Thame Road Shops",,51.70488,-0.91366,,,,,,
340001662SOU,,"Thame Road Shops",,51.705,-0.91376,,,,,,
340003259CNR,,"Village Turn",,51.68095,-0.94974,,,,,,
340003259OPP,,"Village Turn",,51.68106,-0.94924,,,,,,
340003260SE,,"Aston Hill Bottom",,51.67601,-0.95206,,,,,,
040000002897,,"Village Hall",,51.644637,-0.800231,,,,,,
340001255HRN,,"Howland Road",,51.74027,-0.95815,,,,,,
340001255HRS,,"Howland Road",,51.7402,-0.958,,,,,,
340001704CHU,,"Churchill Crescent",,51.74629,-0.96334,,,,,,
340001704OPP,,"Churchill Crescent",,51.74617,-0.9635,,,,,,
040000002960,,"High Wycombe BusStn",,51.631342,-0.756442,,,,,,
040000002993,,"Summerleys Road",,51.719777,-0.842789,,,,,,
040000002994,,"Summerleys Road",,51.719767,-0.842673,,,,,,
040000002995,,"Park Mill",,51.72373,-0.847002,,,,,,
040000002996,,"Park Mill",,51.723836,-0.846898,,,,,,
040000003282,,"Littleworth Road",,51.646217,-0.770401,,,,,,
040000003284,,Commonside,,51.649098,-0.770714,,,,,,
040000003286,,"Memorial Hall",,51.649093,-0.774515,,,,,,
040000003301,,"Grays Lane",,51.645919,-0.778012,,,,,,
040000003303,,"Taylors Turn",,51.64792,-0.776758,,,,,,
040000003576,,"Old Post Office",,51.671163,-0.846876,,,,,,
040000003577,,"Old Post Office",,51.671019,-0.846866,,,,,,
040000003578,,"Ford's Close",,51.673696,-0.849343,,,,,,
040000003579,,"Ford's Close",,51.67387,-0.849743,,,,,,
040000003580,,"The Boot",,51.676359,-0.853224,,,,,,
040000003581,,"The Boot",,51.676269,-0.853241,,,,,,
040000003582,,"Chapel Lane",,51.679137,-0.857825,,,,,,
040000003583,,"Chapel Lane",,51.679148,-0.858013,,,,,,
040000003584,,"Rout's Green",,51.681816,-0.862329,,,,,,
040000003585,,"Rout's Green",,51.681991,-0.862802,,,,,,
040000003586,,"Wigan's Lane",,51.684728,-0.86687,,,,,,
040000003587,,"Wigan's Lane",,51.684656,-0.866916,,,,,,
040000003590,,"Railway Bridge",,51.652346,-0.799637,,,,,,
040000003591,,Pedestal,,51.645166,-0.796532,,,,,,
040000003592,,"Bradenham Road",,51.656502,-0.801537,,,,,,
040000003593,,"Railway Bridge",,51.652122,-0.799701,,,,,,
040000003594,,"The Red Lion PH",,51.664913,-0.809904,,,,,,
040000003595,,"Bradenham Road",,51.656649,-0.801808,,,,,,
040000003596,,"The Golden Cross PH",,51.674861,-0.822674,,,,,,
040000003597,,"The Red Lion PH",,51.666259,-0.811358,,,,,,
040000003598,,"Ministry Wharf",,51.679372,-0.826838,,,,,,
040000003599,,"The Golden Cross PH",,51.675046,-0.823175,,,,,,
040000003600,,"Haw Lane",,51.682528,-0.828651,,,,,,
040000003601,,"Ministry Wharf",,51.679637,-0.827309,,,,,,
040000003602,,"Little Lane",,51.688817,-0.831759,,,,,,
040000003603,,"Haw Lane",,51.68323,-0.828735,,,,,,
040000003604,,"Foundry Lane",,51.698182,-0.831344,,,,,,
040000003605,,"Little Lane",,51.689433,-0.83222,,,,,,
040000003606,,Woodway,,51.710257,-0.833956,,,,,,
040000003607,,"Foundry Lane",,51.698802,-0.831313,,,,,,
040000003608,,"Poppy Road",,51.717099,-0.836632,,,,,,
040000003609,,Woodway,,51.71034,-0.834186,,,,,,
040000003610,,"Bell Street",,51.721515,-0.833117,,,,,,
040000003611,,"Poppy Road",,51.717669,-0.836994,,,,,,
040000003612,,"Market Square",,51.724138,-0.83192,,,,,,
040000003613,,"Bell Street",,51.721685,-0.832982,,,,,,
040000003614,,"The Avenue",,51.727984,-0.828042,,,,,,
040000003616,,"Peters Lane",,51.731037,-0.82317,,,,,,
040000003617,,"The Avenue",,51.7281,-0.827995,,,,,,
040000003618,,"The Holloway",,51.734142,-0.81986,,,,,,
040000003619,,"Peters Lane",,51.731225,-0.823078,,,,,,
040000003620,,Roundabout,,51.738298,-0.81645,,,,,,
040000003621,,"The Holloway",,51.734688,-0.819585,,,,,,
040000003622,,"St Nicholas Church",,51.746108,-0.805353,,,,,,
040000003623,,Roundabout,,51.739361,-0.814829,,,,,,
040000003624,,"All Saints' Church",,51.749398,-0.804397,,,,,,
040000003625,,"St Nicholas Church",,51.74577,-0.805782,,,,,,
040000003626,,"Railway Station",,51.753015,-0.808184,,,,,,
040000003627,,"All Saints' Church",,51.748689,-0.804517,,,,,,
040000003628,,"Brookside Lane",,51.756491,-0.806948,,,,,,
040000003629,,"Railway Station",,51.753025,-0.808314,,,,,,
040000003631,,"Brookside Lane",,51.756413,-0.807254,,,,,,
040000003633,,"Mill Turn",,51.759573,-0.798781,,,,,,
040000003686,,"Mill Turn",,51.759544,-0.798623,,,,,,
040000003688,,"The Retreat",,51.751343,-0.800275,,,,,,
040000003690,,"The Retreat",,51.751413,-0.800128,,,,,,
040000003692,,"The Church",,51.752623,-0.790013,,,,,,
040000003694,,"The Church",,51.75263,-0.790693,,,,,,
040000003696,,"Beacon's View",,51.755156,-0.78457,,,,,,
040000003698,,"Beacon's View",,51.755244,-0.784408,,,,,,
040000003700,,"Chalkshire Cottages",,51.761184,-0.782278,,,,,,
040000003702,,"Chalkshire Cottages",,51.761176,-0.782394,,,,,,
040000003704,,"The Russell Arms PH",,51.756024,-0.780664,,,,,,
040000003705,,"The Russell Arms PH",,51.756079,-0.780793,,,,,,
040000003719,,"North Lee Lane",,51.770046,-0.788938,,,,,,
040000003721,,"North Lee Lane",,51.770314,-0.788772,,,,,,
040000003723,,Crossroads,,51.766589,-0.785857,,,,,,
040000003725,,Crossroads,,51.766377,-0.78537,,,,,,
040000003727,,"Royal Mead",,51.764054,-0.783331,,,,,,
040000003729,,"Royal Mead",,51.763962,-0.783174,,,,,,
040000003731,,"Grove Farm",,51.762749,-0.790162,,,,,,
040000003733,,"Grove Farm",,51.762388,-0.790925,,,,,,
040000003932,,"Princes Risborough School",,51.719511,-0.827725,,,,,,
040000004601,,"Ambulance Station",,51.795482,-0.803744,,,,,,
040000004602,,"Ambulance Station",,51.79601,-0.804368,,,,,,
040000004603,,"Ranch House",,51.791434,-0.800052,,,,,,
040000004604,,"Ranch House",,51.793241,-0.80173,,,,,,
040000004605,,"The Bell PH",,51.788435,-0.796884,,,,,,
040000004606,,"The Bell PH",,51.788731,-0.796833,,,,,,
040000004607,,"The Bull PH",,51.785625,-0.791203,,,,,,
040000004608,,"The Bull PH",,51.78527,-0.790734,,,,,,
040000004609,,"Stoke House",,51.780555,-0.790469,,,,,,
040000004610,,"Stoke House",,51.780854,-0.790635,,,,,,
040000004656,,"Aylesbury Bus Stn",,51.814702,-0.8131,,,,,,
040000004910,,"Aylesbury College",,51.813479,-0.824564,,,,,,
040000004912,,"Railway Station",,51.814256,-0.815259,,,,,,
040000004917,,"Aylesbury College",,51.814751,-0.823355,,,,,,
040000004941,,"Stadium Approach",,51.798932,-0.806089,,,,,,
040000004971,,"Walton Street",,51.812785,-0.80845,,,,,,
040000004972,,"Walton Street",,51.81217,-0.808104,,,,,,
040000004973,,"Magistrates Court",,51.810485,-0.806915,,,,,,
040000004974,,"Stoke Road",,51.809136,-0.808576,,,,,,
040000004975,,"Stoke Road",,51.80893,-0.808726,,,,,,
040000004976,,"The Plough & Harrow PH",,51.810125,-0.805982,,,,,,
040000004977,,"Mandeville Road",,51.806875,-0.80997,,,,,,
040000004978,,"Mandeville Road",,51.80583,-0.809823,,,,,,
040000004986,,"Harvey Road",,51.802304,-0.807914,,,,,,
040000004987,,"Harvey Road",,51.802116,-0.808006,,,,,,
040000004988,,"Stadium Approach",,51.799603,-0.80668,,,,,,
040000002562,,"Fremantle Court",,51.774473,-0.789197,,,,,,
040000002561,,"Fremantle Court",,51.77409,-0.7887,,,,,,
040000002588,,"Stoke Mandeville Hospital Main Gate",,51.798085,-0.805082,,,,,,
040000003566,,"Chorley Road",,51.65264,-0.817077,,,,,,
040000003567,,"Chorley Road",,51.65235,-0.816825,,,,,,
040000003568,,"Loxboro Hill",,51.657304,-0.827581,,,,,,
040000003569,,"Loxboro Hill",,51.657316,-0.827812,,,,,,
040000003570,,"Loxborough House",,51.663117,-0.835239,,,,,,
040000003571,,"Loxborough House",,51.663209,-0.835439,,,,,,
040000003572,,"Scrubb's Lane",,51.665933,-0.837206,,,,,,
040000003573,,"Scrubb's Lane",,51.665934,-0.837264,,,,,,
040000003574,,"The Old House",,51.667949,-0.840061,,,,,,
040000003575,,"The Old House",,51.668218,-0.84095,,,,,,
040000003588,,"Beechgrove Farm",,51.688341,-0.882664,,,,,,
040000003589,,"Beechgrove Farm",,51.68826,-0.882695,,,,,,
040000003871,,"Cockshoot Farm",,51.648847,-0.811828,,,,,,
040000003879,,"Cockshoot Farm",,51.649721,-0.812904,,,,,,
040000003915,,"Tower Farm",,51.661868,-0.915095,,,,,,
040000003917,,"Aston Hill",,51.667266,-0.923323,,,,,,
340000002I2,,"High Street",,51.75211,-1.25652,,,,,,
340000009LRE,,"Thornhill Park and Ride",,51.76311,-1.18064,,,,,,
340000009LRW,,"Thornhill Park and Ride",,51.7624,-1.1833,,,,,,
340000059OLA,,"The Lambert Arms",,51.67869,-0.95717,,,,,,
340000059OPP,,"The Lambert Arms",,51.67736,-0.95457,,,,,,
340000543EST,,"Common Cottage",,51.72386,-1.04996,,,,,,
340000543WST,,"Common Cottage",,51.72397,-1.05147,,,,,,
340000618GC,,"Salt Lane",,51.68992,-0.97391,,,,,,
340000618OSL,,"Salt Lane",,51.69018,-0.97443,,,,,,
340000747GRN,,"The Green",,51.71104,-1.00809,,,,,,
340000747SWA,,"The Green",,51.71105,-1.00774,,,,,,
340001126YOR,,"St Clements Street",,51.75048,-1.24071,,,,,,
340001293CNR,,"A40 Risinghurst Turn",,51.76244,-1.19218,,,,,,
340001293OPP,,"A40 Risinghurst Turn",,51.76251,-1.19088,,,,,,
340001299CSE,,"Chinnor Railway Station",,51.69788,-0.90539,,,,,,
340001299CSW,,"Chinnor Railway Station",,51.69771,-0.90531,,,,,,
340001299OK2,,"Red Kite Road",,51.69576,-0.90867,,,,,,
340001308OPP,,"Gladstone Road",,51.76227,-1.20175,,,,,,
340001309OPP,,"Headington Shops",,51.76055,-1.20974,,,,,,
340001309OUT,,"Headington Shops",,51.75987,-1.21185,,,,,,
340001310ONR,,"Green Road Roundabout",,51.76253,-1.19905,,,,,,
340001311OPS,,"Sandfield Road",,51.75862,-1.21616,,,,,,
340001311OSS,,"Sandfield Road",,51.75865,-1.21577,,,,,,
340001312CNR,,"Wharton Road",,51.76135,-1.20646,,,,,,
340001312OPP,,"Wharton Road",,51.76162,-1.20563,,,,,,
340001313ENT,,"Brookes University",,51.75547,-1.2264,,,,,,
340001313OPP,,"Brookes University",,51.75593,-1.22501,,,,,,
340001317OPP,,"Glebe Street",,51.7509,-1.23857,,,,,,
340001319CNR,,"Headington School",,51.75663,-1.22235,,,,,,
340001319OPP,,"Headington School",,51.75712,-1.22092,,,,,,
340001321HEA,,"South Park",,51.7524,-1.23611,,,,,,
340001467FUL,,"Fullers Field",,51.72057,-1.08754,,,,,,
340001467OPF,,"Fullers Field",,51.72046,-1.08749,,,,,,
340001622CHT,,"Cherry Tree Road",,51.7039,-0.91468,,,,,,
340001622OCT,,"Cherry Tree Road",,51.70393,-0.91497,,,,,,
340001623HCF,,"Hailey Croft",,51.70165,-0.91882,,,,,,
340001623OHC,,"Hailey Croft",,51.70133,-0.91896,,,,,,
340001624NTH,,Cowleaze,,51.69877,-0.91779,,,,,,
340001624STH,,Cowleaze,,51.699,-0.91726,,,,,,
340001629CNR,,"Estover Way",,51.70264,-0.9184,,,,,,
340001629OPP,,"Estover Way",,51.70273,-0.91846,,,,,,
340001686CAR,,"Ambrose Rise",,51.74629,-1.12828,,,,,,
340001686OAR,,"Ambrose Rise",,51.74602,-1.12711,,,,,,
340001687CAV,,"The Avenue",,51.74527,-1.12523,,,,,,
340001687OAV,,"The Avenue",,51.74496,-1.12387,,,,,,
340001689FF,,"Chilworth Road",,51.72063,-1.0858,,,,,,
340001689OFF,,"Chilworth Road",,51.72056,-1.08573,,,,,,
340001690TRE,,"Thame Road",,51.72067,-1.0827,,,,,,
340001691LEN,,"Post Office",,51.72237,-1.09021,,,,,,
340001691LES,,"Post Office",,51.72185,-1.08977,,,,,,
340001693KA,,"ASDA Store",,51.74256,-1.11744,,,,,,
340001693OKA,,"The Plough",,51.74333,-1.11937,,,,,,
340001694ASH,,"Ashurst Court",,51.74119,-1.11143,,,,,,
340001694OAS,,"Ashurst Court",,51.7412,-1.11092,,,,,,
340001697OPP,,"The Bull",,51.72039,-1.0894,,,,,,
340001697OUT,,"The Bull",,51.72039,-1.08953,,,,,,
340001699WST,,"Park Hill Roundabout",,51.75022,-1.13905,,,,,,
340001700WT,,"Holton Turn",,51.75184,-1.13863,,,,,,
340001701EST,,"Forest Hill Turn",,51.76138,-1.16109,,,,,,
340001701WST,,"Forest Hill Turn",,51.76164,-1.16284,,,,,,
340001705CNB,,"Meadow Road",,51.69944,-0.90657,,,,,,
340001705CSB,,"Meadow Road",,51.6992,-0.90601,,,,,,
340001715OPP,,"Five Elms Farm",,51.7385,-1.0889,,,,,,
340001715OUT,,"Five Elms Farm",,51.73848,-1.08964,,,,,,
340001716LON,,"Waterstock Turn",,51.73788,-1.08176,,,,,,
340001716OPP,,"Waterstock Turn",,51.73838,-1.0823,,,,,,
340001719EST,,"Sandy Lane",,51.72774,-1.06304,,,,,,
340001719WST,,"Sandy Lane",,51.72774,-1.06332,,,,,,
340001992J2,,"Queens Lane",,51.75264,-1.25138,,,,,,
340003238CNR,,"Chinnor Hill",,51.6897,-0.90089,,,,,,
340003238OPP,,"Chinnor Hill",,51.68937,-0.90091,,,,,,
340003239OPP,,"Red Lane",,51.69009,-0.89368,,,,,,
340003239OUT,,"Red Lane",,51.69004,-0.89356,,,,,,
340003240OPP,,"The Wheatsheaf",,51.69755,-0.91722,,,,,,
340003240OUT,,"The Wheatsheaf",,51.69764,-0.91721,,,,,,
340003241TRN,,"Motorway Service Area",,51.73947,-1.09701,,,,,,
340003258CNR,,"Oak Farm Close",,51.70737,-1.00317,,,,,,
340003258OPP,,"Oak Farm Close",,51.70762,-1.00341,,,,,,
340003260NW,,"Aston Hill Bottom",,51.67591,-0.95217,,,,,,
340003282CNR,,"Potts Close",,51.72375,-1.09254,,,,,,
340003282OPP,,"Potts Close",,51.72382,-1.09241,,,,,,
340002013GNW,,"The Glebe",,51.74826,-1.13541,,,,,,
340002013GSE,,"The Glebe",,51.74833,-1.13519,,,,,,
340002074T1,,"High Street",,51.75233,-1.25556,,,,,,
040000002959,,"Bus Station",,51.631315,-0.7565,,,,,,
040000003025,,Morrisons,,51.634034,-0.752539,,,,,,
040000003281,,"Telford Way",,51.638473,-0.757316,,,,,,
040000003283,,"Brunel Road",,51.63833,-0.760022,,,,,,
040000003280,,"Hithercroft Road",,51.644688,-0.771223,,,,,,
040000003278,,"Tinkers Wood Road",,51.642716,-0.769224,,,,,,
040000003270,,"Brunel Road",,51.638683,-0.760258,,,,,,
040000003268,,"Telford Way Spur",,51.639464,-0.759225,,,,,,
040000003266,,"Telford Way",,51.638998,-0.756868,,,,,,
040000003026,,"Temple End",,51.63314,-0.752202,,,,,,
040000003056,,Frogmoor,,51.631734,-0.752746,,,,,,
040000003417,,"Marlow Hill Schools",,51.618114,-0.763159,,,,,,
040000003419,,"Whincup Close",,51.617789,-0.765594,,,,,,
040000003396,,"Rupert Avenue",,51.617803,-0.766966,,,,,,
040000003171,,"Bowerdean Crossroads",,51.631064,-0.735499,,,,,,
040000003173,,"Acorn Close",,51.633468,-0.734912,,,,,,
040000003175,,"The Happy Wanderer PH",,51.636155,-0.733956,,,,,,
040000003177,,"Mayhew Crescent",,51.63782,-0.734979,,,,,,
040000003179,,"Sheraton Drive",,51.639956,-0.735353,,,,,,
040000003941,,"Windsor Drive",,51.641404,-0.734633,,,,,,
040000003942,,"Windsor Drive",,51.641385,-0.734489,,,,,,
040000003178,,"Sheraton Drive",,51.64066,-0.734798,,,,,,
040000003180,,"Mayhew Crescent",,51.638605,-0.735231,,,,,,
040000003182,,"The Happy Wanderer PH",,51.635389,-0.733775,,,,,,
040000003184,,"Acorn Close",,51.633866,-0.734352,,,,,,
040000003421,,"Rupert Avenue",,51.617828,-0.766792,,,,,,
040000003384,,Asda,,51.612204,-0.78013,,,,,,
040000003382,,"Alford Road",,51.612806,-0.786209,,,,,,
040000003378,,"Holmers Court",,51.613717,-0.791702,,,,,,
040000003374,,"Lansdell Avenue",,51.615371,-0.788119,,,,,,
040000003372,,"Turnpike Corner West",,51.616465,-0.783497,,,,,,
040000003370,,"Turnpike Corner",,51.617001,-0.783223,,,,,,
040000003368,,"Squirrel Lane",,51.620945,-0.784547,,,,,,
040000003366,,"Edmunds Close",,51.622879,-0.785536,,,,,,
040000003364,,"Field Road",,51.625114,-0.787715,,,,,,
040000003948,,"Mentmore Road",,51.627416,-0.787011,,,,,,
040000003362,,"Roundwood Road",,51.628318,-0.785405,,,,,,
040000003360,,"New Road",,51.62915,-0.784978,,,,,,
040000003350,,"The Hour Glass PH",,51.633291,-0.783697,,,,,,
040000003348,,"Dashwood Avenue",,51.63449,-0.780559,,,,,,
040000003346,,"Prestwood Close",,51.634106,-0.776451,,,,,,
040000003344,,"The Half Moon PH",,51.633588,-0.771696,,,,,,
040000003342,,"Oakridge Road",,51.633263,-0.768122,,,,,,
040000003340,,"Green Street",,51.632273,-0.765418,,,,,,
040000003338,,"Cedar Terrace",,51.632181,-0.763542,,,,,,
040000002962,,"Bus Station",,51.631386,-0.756354,,,,,,
040000003097,,"Micklefield Road",,51.621209,-0.718901,,,,,,
040000003241,,"Hawthorne Road",,51.624769,-0.717182,,,,,,
040000002948,,"Petrol Station",,51.626882,-0.716371,,,,,,
040000003445,,"Hennerton Way North",,51.628817,-0.719842,,,,,,
040000003447,,"Brow Of The Hill",,51.627392,-0.720258,,,,,,
040000003213,,"Herbert Road South",,51.627695,-0.714268,,,,,,
040000003215,,"Buckingham Drive",,51.630287,-0.711175,,,,,,
040000003233,,"Ash Hill School",,51.632112,-0.710271,,,,,,
040000003217,,"Ashdown Road",,51.632698,-0.713679,,,,,,
040000003219,,"Woodside Road",,51.635098,-0.716949,,,,,,
040000003206,,"Woodside Road",,51.63489,-0.716868,,,,,,
040000003208,,"Ashdown Road",,51.632907,-0.714742,,,,,,
040000003210,,"Ash Hill School",,51.632164,-0.71011,,,,,,
040000003212,,"Buckingham Drive",,51.629705,-0.711365,,,,,,
040000003214,,"Herbert Road South",,51.627741,-0.713458,,,,,,
040000003216,,"Hawthorne Road",,51.624347,-0.717209,,,,,,
040000003096,,"Micklefield Road",,51.620903,-0.718851,,,,,,
040000002957,,"Bus Station",,51.631271,-0.756588,,,,,,
040000003349,,"Cedar Terrace",,51.631962,-0.76323,,,,,,
040000003351,,"Green Street",,51.632884,-0.767121,,,,,,
040000003353,,"Oakridge Road",,51.633226,-0.768874,,,,,,
040000003355,,"The Half Moon PH",,51.633499,-0.771728,,,,,,
040000003357,,"Prestwood Close",,51.633876,-0.776038,,,,,,
040000003359,,"Dashwood Avenue",,51.634172,-0.781998,,,,,,
040000003361,,"The Hour Glass PH",,51.632667,-0.784292,,,,,,
040000003369,,"New Road",,51.629328,-0.784858,,,,,,
040000003371,,"Roundwood Road",,51.628216,-0.785119,,,,,,
040000003947,,"Mentmore Road",,51.626226,-0.787469,,,,,,
040000003373,,"Field Road",,51.624249,-0.787623,,,,,,
040000003375,,"Edmunds Close",,51.622969,-0.785562,,,,,,
040000003377,,"Squirrel Lane",,51.620708,-0.784308,,,,,,
040000003379,,"Turnpike Corner",,51.617216,-0.783145,,,,,,
040000003381,,"Nancy Hall Court",,51.614352,-0.78091,,,,,,
040000003385,,"Empire Cinema",,51.613327,-0.772287,,,,,,
040000003160,,"Tyzack Road",,51.641604,-0.723124,,,,,,
040000003162,,"The Dolphin PH",,51.639461,-0.722014,,,,,,
040000003164,,"Totteridge Lane",,51.637122,-0.722744,,,,,,
040000003221,,"Hollis Road",,51.634231,-0.722348,,,,,,
040000003166,,"Turners Drive",,51.63454,-0.725186,,,,,,
040000003168,,"Elora Road",,51.632498,-0.728393,,,,,,
040000003170,,"Rowan Avenue",,51.631721,-0.733053,,,,,,
040000002956,,"Bus Station",,51.631245,-0.756632,,,,,,
040000003437,,"Whitelands Road",,51.630816,-0.774025,,,,,,
040000003439,,"Link Road",,51.628372,-0.775016,,,,,,
040000002925,,"Chairborough Road",,51.625725,-0.776474,,,,,,
040000003441,,"Pettifer Way",,51.624019,-0.77756,,,,,,
040000003426,,"The Jolly Bodger PH",,51.622964,-0.779842,,,,,,
040000003428,,"Laburnum Road",,51.623773,-0.781597,,,,,,
040000003430,,"Methodist Church",,51.625947,-0.78047,,,,,,
040000003432,,"Cross Road",,51.628825,-0.780595,,,,,,
040000003434,,"Spearing Road",,51.630709,-0.780992,,,,,,
040000003436,,"Grenfell Avenue",,51.631472,-0.778284,,,,,,
040000003438,,"Copyground Lane",,51.632875,-0.774042,,,,,,
040000003183,,"Bowerdean Crossroads",,51.631162,-0.734586,,,,,,
040000003185,,"Rowan Avenue",,51.631956,-0.732353,,,,,,
040000003187,,"Elora Road",,51.632883,-0.728267,,,,,,
040000003189,,"Turners Drive",,51.634823,-0.724673,,,,,,
040000003201,,"Totteridge Lane",,51.637509,-0.722791,,,,,,
040000003203,,"The Dolphin PH",,51.63888,-0.722333,,,,,,
040000002961,,"Bus Station",,51.631368,-0.756398,,,,,,
040000003819,,"Abbey Barn Road",,51.617836,-0.718764,,,,,,
040000003821,,"Marsh School",,51.617553,-0.720881,,,,,,
040000003823,,"Beech Road",,51.615731,-0.719517,,,,,,
040000003825,,"General Havelock",,51.614871,-0.716566,,,,,,
040000003827,,"Rugby Club",,51.613641,-0.713394,,,,,,
040000003829,,"Dolphin Court",,51.611402,-0.707724,,,,,,
040000002983,,"Woodside Close",,51.608502,-0.704066,,,,,,
040000003864,,"St Peter's Close",,51.60661,-0.702084,,,,,,
040000003835,,"Lammas Way",,51.603958,-0.698044,,,,,,
040000003837,,"Knaves Beech",,51.602072,-0.694993,,,,,,
040000003839,,"Hedge Lea",,51.600814,-0.69269,,,,,,
040000003841,,"Boundary Place",,51.598855,-0.68957,,,,,,
040000003843,,"Glory Mill Lane",,51.596055,-0.686027,,,,,,
040000003845,,"Wycombe Lane",,51.592398,-0.683895,,,,,,
040000003847,,"The Red Lion PH",,51.588106,-0.683629,,,,,,
040000003849,,"Town Lane",,51.581774,-0.689109,,,,,,
040000003851,,Cemetery,,51.579374,-0.692367,,,,,,
040000003853,,Brookbank,,51.577908,-0.696407,,,,,,
040000003855,,"Cores End",,51.578203,-0.701926,,,,,,
040000003957,,"Bourne End Acadamy",,51.581321,-0.705806,,,,,,
040000003861,,"New Road",,51.578235,-0.708116,,,,,,
040000003863,,"Railway Station",,51.577612,-0.710342,,,,,,
040000003838,,"Railway Station",,51.577208,-0.710353,,,,,,
040000003836,,"New Road",,51.578328,-0.708345,,,,,,
040000003834,,"Cores End",,51.578276,-0.701996,,,,,,
040000003832,,Brookbank,,51.578094,-0.6962,,,,,,
040000003830,,Cemetery,,51.579282,-0.692991,,,,,,
040000003828,,"Town Lane",,51.582152,-0.689083,,,,,,
040000003826,,"The Red Lion PH",,51.588233,-0.683755,,,,,,
040000003824,,"Wycombe Lane",,51.592797,-0.684186,,,,,,
040000003822,,"Glory Mill Lane",,51.595539,-0.685753,,,,,,
040000003820,,"Boundary Place",,51.599223,-0.69031,,,,,,
040000003818,,"Hedge Lea",,51.600918,-0.693092,,,,,,
040000003816,,"Knaves Beech",,51.602313,-0.695679,,,,,,
040000003814,,"Lammas Way",,51.60418,-0.698629,,,,,,
040000003810,,"St Peter's Close",,51.606548,-0.702158,,,,,,
040000002984,,"Woodside Close",,51.608386,-0.704112,,,,,,
040000003808,,"Dolphin Court",,51.611239,-0.707613,,,,,,
040000003806,,"Rugby Club",,51.613449,-0.71314,,,,,,
040000003804,,"General Havelock",,51.614809,-0.716683,,,,,,
040000003802,,"Beech Road",,51.615844,-0.720019,,,,,,
040000003800,,"Marsh School",,51.617634,-0.720908,,,,,,
040000003798,,"Abbey Barn Road",,51.617905,-0.719326,,,,,,
040000003857,,"Furlong Road",,51.577537,-0.706794,,,,,,
040000003859,,"Post Office",,51.5752,-0.709313,,,,,,
0400000T9002,,"Bridge Street",,51.631245,-0.757435,,,,,,
040000003318,,"Oxford Road",,51.631763,-0.755433,,,,,,
040000003062,,"Abbey School",,51.626687,-0.750776,,,,,,
040000005000,,"Fernlea Close",,51.603951,-0.714607,,,,,,
040000005001,,"Fernlea Close",,51.604005,-0.714533,,,,,,
040000003124,,"The Common",,51.601461,-0.70971,,,,,,
040000002919,,"Chapman Lane",,51.599355,-0.706261,,,,,,
040000005862,,Greenlands,,51.598842,-0.703749,,,,,,
040000005860,,"Straight Bit",,51.597611,-0.700636,,,,,,
040000005838,,"Northern Woods",,51.595271,-0.697166,,,,,,
040000005856,,"The Green Dragon PH",,51.59468,-0.700605,,,,,,
040000003875,,"Blind Lane",,51.591101,-0.703031,,,,,,
040000003873,,"Waborne Road",,51.584092,-0.70922,,,,,,
040000003831,,"The Parade",,51.580706,-0.713704,,,,,,
040000003840,,"St Mark's Church",,51.575586,-0.710039,,,,,,
040000003422,,"Whincup Close",,51.617835,-0.765708,,,,,,
040000005009,,Moorside,,51.599593,-0.685593,,,,,,
040000003846,,"The Parade",,51.579986,-0.713594,,,,,,
040000003848,,"Loddon Road",,51.582489,-0.71146,,,,,,
040000003970,,"Waborne Road",,51.584192,-0.709304,,,,,,
040000003850,,"Blind Lane",,51.591781,-0.702752,,,,,,
040000003856,,"The Green Dragon PH",,51.594748,-0.700285,,,,,,
040000003858,,"Northern Woods",,51.595334,-0.697222,,,,,,
040000003860,,"Straight Bit",,51.597353,-0.700846,,,,,,
040000003862,,"Chapman Lane",,51.598701,-0.704013,,,,,,
040000003126,,"The Common",,51.600764,-0.709282,,,,,,
0400000T9001,,"Oxford Road",,51.631537,-0.755495,,,,,,
040000005010,,Moorside,,51.599184,-0.686023,,,,,,
040000003414,,"West End Road",,51.631551,-0.762678,,,,,,
040000002969,,"Bridge Street",,51.631023,-0.757722,,,,,,
040000003865,,"St Mark's Church",,51.575539,-0.709867,,,,,,
040000003867,,"Hedsor Road",,51.57233,-0.709193,,,,,,
040000003869,,"Ferry Lane",,51.569398,-0.707515,,,,,,
040000003923,,"Riversdale South",,51.565101,-0.705978,,,,,,
036006195196,,"Cookham Village Memorial",,51.559775,-0.710601,,,,,,
036006001026,,"Cookham Rise Railway Station",,51.557599,-0.722982,,,,,,
036006193193,,"St Elizabeth's Church",,51.55821,-0.727927,,,,,,
036006180181,,"High Road",,51.556981,-0.732275,,,,,,
036006182183,,"Broom Hill",,51.554853,-0.731786,,,,,,
036006184184,,"The Shaw",,51.553018,-0.730856,,,,,,
036006186186,,"Hillcrest Avenue",,51.552044,-0.726469,,,,,,
036006188188,,"Southwood Gardens",,51.550121,-0.727417,,,,,,
036006111112,,"Kinghorn Park",,51.54058,-0.732355,,,,,,
036006110110,,"Switchback Road Shops",,51.538096,-0.7313,,,,,,
036006104105,,"Well House Road",,51.535907,-0.730149,,,,,,
036006106107,,"Kent Way",,51.534076,-0.731267,,,,,,
036006001014,,"Furze Platt Station",,51.532768,-0.72917,,,,,,
036006100101,,"Moor Lane",,51.532399,-0.725042,,,,,,
036006099099,,"Australia Avenue",,51.530337,-0.72311,,,,,,
036006097098,,"St Joseph's Church",,51.526434,-0.720596,,,,,,
036006009010,,"Frascati Way",,51.521136,-0.723786,,,,,,
036006008008,,Broadway,,51.52139,-0.720665,,,,,,
036006007007,,"Market Street",,51.522875,-0.719961,,,,,,
036006005005,,Library,,51.522487,-0.718141,,,,,,
036006006008,,"Bridge Avenue",,51.521865,-0.716371,,,,,,
036006140141,,Sainsbury's,,51.524557,-0.718983,,,,,,
036006097097,,"St Joseph's Church",,51.526817,-0.72109,,,,,,
036006001464,,"Australia Avenue",,51.530102,-0.723045,,,,,,
036006100100,,"Moor Lane",,51.532265,-0.725133,,,,,,
036006002014,,"Furze Platt Station",,51.532501,-0.729437,,,,,,
036006106106,,"Kent Way",,51.534662,-0.731438,,,,,,
036006104104,,"Well House Road",,51.536174,-0.729825,,,,,,
036006108108,,"Spencers Bridge",,51.537284,-0.729419,,,,,,
036006110111,,"Switchback Road Shops",,51.538438,-0.731579,,,,,,
036006111111,,"Kinghorn Park",,51.539923,-0.732302,,,,,,
036006728728,,"Southwood Gardens",,51.550283,-0.727384,,,,,,
036006186187,,"Hillcrest Avenue",,51.551914,-0.726862,,,,,,
036006184185,,"The Shaw",,51.552902,-0.730974,,,,,,
036006182182,,"Broom Hill",,51.554909,-0.731914,,,,,,
036006180180,,"High Road",,51.557226,-0.732527,,,,,,
036006193194,,"St Elizabeth's Church",,51.558504,-0.728482,,,,,,
036006191192,,"Medical Centre",,51.557983,-0.726044,,,,,,
036006190190,,"Cookham Rise Railway Station",,51.557771,-0.720611,,,,,,
036006195195,,"Cookham Village Memorial",,51.559913,-0.710886,,,,,,
040000003924,,"Riversdale South",,51.566006,-0.706486,,,,,,
040000003844,,"Ferry Lane",,51.569672,-0.707897,,,,,,
040000003842,,"Hedsor Road",,51.572278,-0.709324,,,,,,
040000003885,,"Fennels Farm Road",,51.604698,-0.710542,,,,,,
040000003883,,"Oakland Way",,51.604674,-0.713258,,,,,,
040000003852,,Highlands,,51.596944,-0.705362,,,,,,
040000003854,,"Green Dragon Lane",,51.594695,-0.701976,,,,,,
040000003877,,"Whitepit Lane",,51.595083,-0.695612,,,,,,
040000008002,,"Whitepit Lane Bottom",,51.58801,-0.684125,,,,,,
040000008001,,"Whitepit Lane Bottom",,51.587954,-0.684167,,,,,,
040000003926,,"Whitepit Lane",,51.59516,-0.696072,,,,,,
040000003880,,"Oakland Way",,51.605093,-0.712885,,,,,,
040000003882,,"Fennels Farm Road",,51.604761,-0.710483,,,,,,
040000002958,,"Bus Station",,51.631298,-0.756544,,,,,,
040000003739,,"Western Dene",,51.661072,-0.712514,,,,,,
040000003737,,"Primrose Hill",,51.664851,-0.71514,,,,,,
040000003093,,"Honeysuckle Road",,51.664128,-0.717286,,,,,,
040000003091,,"George's Hill",,51.663316,-0.720403,,,,,,
040000002013,,"Copes Road",,51.673336,-0.719021,,,,,,
040000002015,,"Spurlands End Road",,51.676896,-0.721394,,,,,,
040000002017,,"Heath End Road",,51.678001,-0.722968,,,,,,
040000002019,,"Stag Lane",,51.67523,-0.727009,,,,,,
040000002021,,"The Common",,51.675027,-0.733147,,,,,,
040000002027,,"Cherry Tree Close",,51.677929,-0.734556,,,,,,
040000002029,,"Peterley Corner",,51.68468,-0.734411,,,,,,
040000002031,,"Holy Trinity Church",,51.689393,-0.736232,,,,,,
040000002033,,"Hildreth Road",,51.69291,-0.73965,,,,,,
040000002035,,"Sixty Acres Road",,51.696586,-0.742905,,,,,,
040000002037,,"Village Hall",,51.698977,-0.742781,,,,,,
040000002039,,"Blacksmith Lane",,51.699804,-0.737722,,,,,,
040000002041,,"The Traveller's Rest PH",,51.699713,-0.733427,,,,,,
040000002043,,"The Green Man PH",,51.700285,-0.728998,,,,,,
040000002045,,"Broomfield Hill",,51.701723,-0.72479,,,,,,
040000002047,,"Martinsend Lane",,51.702416,-0.719054,,,,,,
040000002048,,"Railway Station",,51.703729,-0.709205,,,,,,
040000002046,,"Martinsend Lane",,51.70251,-0.717807,,,,,,
040000002044,,"Broomfield Hill",,51.701632,-0.724648,,,,,,
040000002042,,"The Green Man PH",,51.700177,-0.728986,,,,,,
040000002040,,"The Traveller's Rest PH",,51.699645,-0.733805,,,,,,
040000002038,,"Blacksmith Lane",,51.699711,-0.737436,,,,,,
040000002036,,"Village Hall",,51.699108,-0.742488,,,,,,
040000002034,,"Sixty Acres Road",,51.695916,-0.742403,,,,,,
040000002032,,"Hildreth Road",,51.693345,-0.739957,,,,,,
040000002030,,"Holy Trinity Church",,51.689655,-0.736283,,,,,,
040000002028,,"Peterley Corner",,51.683911,-0.733955,,,,,,
040000002026,,"Cherry Tree Close",,51.677378,-0.734383,,,,,,
040000002020,,"The Common",,51.675065,-0.733319,,,,,,
040000002011,,"Stag Lane",,51.675272,-0.727529,,,,,,
040000002018,,Fernside,,51.675608,-0.72616,,,,,,
040000002016,,"Heath End Road",,51.678269,-0.722787,,,,,,
040000002014,,"Spurlands End Road",,51.675617,-0.720345,,,,,,
040000002012,,"Copes Road",,51.673497,-0.71893,,,,,,
040000003082,,"George's Hill",,51.663387,-0.720242,,,,,,
040000003083,,"Honeysuckle Road",,51.664493,-0.716972,,,,,,
040000003720,,"Primrose Hill",,51.664676,-0.714769,,,,,,
040000003545,,Clayhill,,51.609196,-0.798927,,,,,,
040000003543,,"Marlow Road",,51.617159,-0.830638,,,,,,
040000003557,,"The Row",,51.619588,-0.834346,,,,,,
040000003563,,"Simmons Way",,51.618749,-0.828604,,,,,,
040000003561,,"Slayter Road",,51.620338,-0.827494,,,,,,
040000002913,,"Tapping Road",,51.621005,-0.829456,,,,,,
040000003559,,"Archers Way",,51.621082,-0.83178,,,,,,
040000003554,,"Widdenton View",,51.623319,-0.830653,,,,,,
040000003552,,"Briars Hey",,51.623158,-0.823507,,,,,,
040000003550,,"Sandage Wood",,51.622034,-0.816371,,,,,,
040000003548,,"Grove Farm",,51.621154,-0.806744,,,,,,
040000003358,,"Rydal Way",,51.623226,-0.793934,,,,,,
040000003356,,"Hillbottom Road",,51.63051,-0.791328,,,,,,
040000003354,,"Pinewood Road",,51.631282,-0.787681,,,,,,
040000003352,,"The Hour Glass PH",,51.632813,-0.784505,,,,,,
040000003363,,"Lane End Road",,51.631693,-0.785763,,,,,,
040000003365,,"Pinewood Road",,51.63114,-0.787916,,,,,,
040000003367,,"Hillbottom Road",,51.630905,-0.790422,,,,,,
040000003077,,"Rydal Way",,51.623279,-0.793774,,,,,,
040000003547,,"Grove Farm",,51.621129,-0.806947,,,,,,
040000003549,,"Sandage Wood",,51.621922,-0.816865,,,,,,
040000003551,,"Briars Hey",,51.623316,-0.824066,,,,,,
040000003553,,"Widdenton View",,51.623177,-0.830816,,,,,,
040000003555,,"Wrights Close",,51.622728,-0.834525,,,,,,
040000003558,,"Blackwell Road",,51.621878,-0.832222,,,,,,
040000002914,,"Tapping Road",,51.621204,-0.829538,,,,,,
040000003562,,"Slayter Road",,51.620424,-0.827131,,,,,,
040000002980,,"Simmons Way",,51.618618,-0.829041,,,,,,
040000003544,,"Marlow Road",,51.617157,-0.830393,,,,,,
040000003546,,Clayhill,,51.60884,-0.799269,,,,,,
040000003409,,"Marlow Road",,51.614968,-0.768473,,,,,,
040000003755,,"The Blacksmiths' Arms PH",,51.608258,-0.770835,,,,,,
040000003757,,"Burroughs Grove Hill",,51.600179,-0.769566,,,,,,
040000003759,,"The Three Horseshoes PH",,51.593744,-0.766405,,,,,,
040000003761,,"Wycombe Road",,51.585189,-0.766074,,,,,,
040000003763,,"Churchill Drive",,51.583729,-0.761509,,,,,,
040000003765,,"Wiltshire Road",,51.581154,-0.761175,,,,,,
040000002438,,"Little Marlow Road",,51.580452,-0.760313,,,,,,
040000003767,,"Bobmore Lane",,51.578808,-0.765525,,,,,,
040000003769,,"Foxes Piece",,51.575523,-0.771299,,,,,,
040000003771,,"Spittal Street",,51.573274,-0.775487,,,,,,
040000003789,,"West Street",,51.570527,-0.779385,,,,,,
040000003791,,"Spinfield Lane",,51.568418,-0.785847,,,,,,
040000003793,,"Pound Lane",,51.565842,-0.789754,,,,,,
040000003795,,"Hook's Corner",,51.564088,-0.801097,,,,,,
040000003797,,"Harleyford Manor",,51.560954,-0.810311,,,,,,
040000003799,,"Combined School",,51.558318,-0.815515,,,,,,
040000003801,,"Thames Reach",,51.557079,-0.821967,,,,,,
040000003803,,"Danesfield House",,51.554099,-0.827034,,,,,,
040000003805,,"Millbank Wood",,51.552516,-0.829628,,,,,,
040000003807,,"The Dog & Badger PH",,51.553324,-0.839516,,,,,,
040000003886,,"Westfield Bungalows",,51.555385,-0.849763,,,,,,
040000003809,,"Mill End",,51.55874,-0.868374,,,,,,
040000003811,,Greenlands,,51.563726,-0.883846,,,,,,
040000003813,,"Benhams Lane",,51.561962,-0.894088,,,,,,
040000003815,,"Fawley Court Farm",,51.560819,-0.897867,,,,,,
040000003817,,"Icehouse Lane",,51.555991,-0.901777,,,,,,
340001663SOU,,"Swiss Farm",,51.54542,-0.90355,,,,,,
340001512BLN,,"Bell Street North",,51.53983,-0.90432,,,,,,
340000393TH,,"Hart Street",,51.53757,-0.90356,,,,,,
340000270STN,,"Henley-on-Thames Stn",,51.53473,-0.90105,,,,,,
340001521OPP,,"St Marks Road",,51.53239,-0.90155,,,,,,
340001522OPP,,"Niagara Road",,51.52939,-0.89775,,,,,,
340000736CNR,,"Newtown Road",,51.52788,-0.89601,,,,,,
340003222TES,,"Tesco Superstore",,51.52666,-0.8952,,,,,,
340000364TS,,Allotments,,51.52519,-0.89439,,,,,,
340001670CNR,,"Bolney Lane",,51.51454,-0.89234,,,,,,
340001680SRD,,"Station Road",,51.51025,-0.8906,,,,,,
340001667OPP,,"Mill Lane",,51.50341,-0.89441,,,,,,
340001669SCA,,"Shiplake College",,51.49967,-0.89828,,,,,,
340000651PH,,"The Plowden Arms PH",,51.49912,-0.89963,,,,,,
340001668OPP,,"Memorial Avenue",,51.50057,-0.90589,,,,,,
340000094WHT,,"The White Hart PH",,51.5008,-0.9112,,,,,,
340001666OUT,,"Heathfield Close",,51.50068,-0.92447,,,,,,
340000094OPP,,"Gravel Road",,51.49572,-0.93086,,,,,,
340001665OUT,,"Bints Farm",,51.49208,-0.93417,,,,,,
340000269OPP,,"The Green",,51.48831,-0.93696,,,,,,
340001664OPP,,"Play Hatch Roundabout W",,51.47877,-0.93325,,,,,,
039026300003,,"Henley Road County Boundary",,51.47466,-0.94261,,,,,,
039026670002,,"Micklands Road",,51.47319,-0.94679,,,,,,
039025030002,,"All Hallows Road",,51.47149,-0.95103,,,,,,
039027360001,,"Star Inn",,51.46796,-0.95952,,,,,,
039026720002,,"Montague Street",,51.46622,-0.95932,,,,,,
039027300001,,"St Johns Road",,51.4655,-0.96277,,,,,,
039026000001,,"Elizabeth House",,51.46613,-0.96738,,,,,,
039027770001,,"Westfield Road",,51.46679,-0.97065,,,,,,
039025600002,,"Church Street",,51.46748,-0.97353,,,,,,
039025290001,,"Bridge Street Caversham",,51.46687,-0.97672,,,,,,
039027500001,,"The Moderation",,51.46414,-0.9769,,,,,,
039027410001,,"Swansea Road",,51.46265,-0.9753,,,,,,
039028320004,,"Station North Interchange",,51.46009,-0.9714,,,,,,
039028160002,,"Forbury Road",,51.4579,-0.9701,,,,,,
039028170001,,"Friar Street",,51.45665,-0.97099,,,,,,
340000393BEL,,"Bell Street",,51.53776,-0.90483,,,,,,
340001512OPP,,"Bell Street North",,51.54055,-0.90464,,,,,,
340001663NOR,,"Swiss Farm",,51.54561,-0.9036,,,,,,
040000003796,,"Icehouse Lane",,51.556422,-0.901738,,,,,,
040000003956,,"Fawley Court Farm",,51.561025,-0.897775,,,,,,
040000003794,,"Benhams Lane",,51.562051,-0.894043,,,,,,
040000003792,,Greenlands,,51.563696,-0.88451,,,,,,
040000003790,,"Mill End",,51.558708,-0.867855,,,,,,
040000003888,,"Westfield Bungalows",,51.555539,-0.849602,,,,,,
040000003788,,"The Dog & Badger PH",,51.553504,-0.839569,,,,,,
040000003786,,"Millbank Wood",,51.552614,-0.829582,,,,,,
040000003784,,"Danesfield House",,51.554475,-0.826808,,,,,,
040000003782,,"Thames Reach",,51.557279,-0.820375,,,,,,
040000003780,,"Combined School",,51.558223,-0.815907,,,,,,
040000003778,,"Harleyford Manor",,51.560946,-0.810484,,,,,,
040000003776,,"Hook's Corner",,51.564117,-0.801284,,,,,,
040000003774,,"Pound Lane",,51.565552,-0.79044,,,,,,
040000003772,,"Spinfield Lane",,51.569223,-0.784571,,,,,,
040000003770,,"West Street",,51.570965,-0.779099,,,,,,
040000003768,,"Queens Road",,51.574948,-0.780753,,,,,,
040000003766,,"Dean Street",,51.575035,-0.778773,,,,,,
040000003764,,"Dean Street Car Park",,51.573848,-0.777016,,,,,,
040000003752,,"Spittal Street",,51.573875,-0.774504,,,,,,
040000003750,,"Foxes Piece",,51.575721,-0.771309,,,,,,
040000003748,,"Bobmore Lane",,51.578553,-0.76696,,,,,,
040000003744,,"Wiltshire Road",,51.581442,-0.761253,,,,,,
040000003742,,"Churchill Drive",,51.583779,-0.762013,,,,,,
040000003740,,"Wycombe Road",,51.585467,-0.766903,,,,,,
040000003738,,"The Three Horseshoes PH",,51.594563,-0.766541,,,,,,
040000003734,,"The Blacksmiths' Arms PH",,51.60881,-0.771109,,,,,,
040000003394,,"Marlow Road",,51.616034,-0.768097,,,,,,
039028160001,,"Forbury Road",,51.45798,-0.96985,,,,,,
039027410002,,"Swansea Road",,51.46265,-0.9755,,,,,,
039027500002,,"The Moderation",,51.46457,-0.97755,,,,,,
039025290002,,"Bridge Street Caversham",,51.46649,-0.97696,,,,,,
039025600001,,"Church Street",,51.46776,-0.97549,,,,,,
039027770002,,"Westfield Road",,51.46647,-0.96906,,,,,,
039027680001,,"Washington Road",,51.46586,-0.96484,,,,,,
039027300002,,"St Johns Road",,51.46543,-0.96185,,,,,,
039026720001,,"Montague Street",,51.46589,-0.95938,,,,,,
039027360002,,"Star Inn",,51.46896,-0.95935,,,,,,
039025540001,,"Chiltern Road",,51.47068,-0.95788,,,,,,
039027590001,,"Travellers Rest",,51.47064,-0.95423,,,,,,
039025030001,,"All Hallows Road",,51.47146,-0.95158,,,,,,
039026670001,,"Micklands Road",,51.47334,-0.94676,,,,,,
039026300002,,"Henley Road County Boundary",,51.47486,-0.94246,,,,,,
340001664OUT,,"Play Hatch Roundabout W",,51.47865,-0.93333,,,,,,
340000269WEL,,"The Green",,51.48836,-0.93705,,,,,,
340001665OPP,,"Bints Farm",,51.49219,-0.93421,,,,,,
340000094INN,,"Gravel Road",,51.4956,-0.93097,,,,,,
340001666OPP,,"Heathfield Close",,51.50073,-0.92423,,,,,,
340000094WHO,,"The White Hart PH",,51.50099,-0.91092,,,,,,
340001668CNR,,"Memorial Avenue",,51.50067,-0.90592,,,,,,
340000658PA,,"The Plowden Arms PH",,51.49921,-0.89977,,,,,,
340001669SCO,,"Shiplake College",,51.49967,-0.89851,,,,,,
340001667OUT,,"Mill Lane",,51.50346,-0.89461,,,,,,
340001680OSR,,"Station Road",,51.51,-0.89151,,,,,,
340001670OPP,,"Bolney Lane",,51.51449,-0.89244,,,,,,
340000364TN,,Allotments,,51.5254,-0.89467,,,,,,
340003222TEN,,"Tesco Superstore",,51.52728,-0.89577,,,,,,
340000736OPP,,"Newtown Road",,51.52856,-0.89684,,,,,,
340001522WAV,,"Niagara Road",,51.52992,-0.89884,,,,,,
340001521CNR,,"St Marks Road",,51.53207,-0.90143,,,,,,
340003223CNR,,"Norman Avenue",,51.53485,-0.90304,,,,,,
040000003746,,"Little Marlow Road",,51.580534,-0.76034,,,,,,
035090820002,,"Two Brewers",,51.53593,-0.89628,,,,,,
035090780002,,"Temple Combe",,51.52356,-0.87704,,,,,,
035090760002,,"Kenton's Lane",,51.52082,-0.87361,,,,,,
035090740002,,"White Cliff",,51.51525,-0.86937,,,,,,
035090720002,,"Summer Lodge",,51.51127,-0.86834,,,,,,
035090700002,,"Willow Lane",,51.50848,-0.86824,,,,,,
035090680002,,"Wargrave Hill",,51.5026,-0.86923,,,,,,
035090640002,,"Station Road",,51.49918,-0.87038,,,,,,
035090620002,,"Piggott School",,51.48927,-0.87048,,,,,,
035090600002,,"Carliles Corner - New Bath Rd Rdbt",,51.48753,-0.87051,,,,,,
035091460002,,"Carlile Gardens",,51.48566,-0.86867,,,,,,
035091440002,,"Arnside Close",,51.48634,-0.86359,,,,,,
035091420002,,"Longfield Road",,51.48523,-0.8624,,,,,,
035091400002,,Pennfields,,51.48344,-0.85999,,,,,,
035091300002,,"Loddon Hall Road",,51.48152,-0.8615,,,,,,
035091200002,,"Springfield Park",,51.47889,-0.86377,,,,,,
035091100003,,Waitrose,,51.47789,-0.86545,,,,,,
035091100002,,"Cross Roads",,51.47735,-0.86715,,,,,,
035059870001,,"Old Silk Mill",,51.47777,-0.8706,,,,,,
035091060002,,"Waggon and Horses",,51.47813,-0.8727,,,,,,
035091040002,,"Chiltern Drive",,51.47731,-0.883,,,,,,
035091020002,,"Park View Drive South",,51.4763,-0.88503,,,,,,
035090260004,,"Wee Waif",,51.47452,-0.88977,,,,,,
035090260002,,"Milestone Avenue",,51.4738,-0.89216,,,,,,
035090240002,,"Model Farm",,51.47151,-0.89521,,,,,,
035090220002,,"Hawthorn Way",,51.46836,-0.90331,,,,,,
035090200002,,"Holmemoor Drive",,51.46526,-0.90992,,,,,,
035090180002,,"Sonning Lane",,51.4627,-0.91553,,,,,,
035090160002,,"Shepherds Hill Top",,51.45895,-0.92039,,,,,,
035090140002,,"Earley Power Station",,51.45784,-0.92607,,,,,,
035090120002,,"Shepherds House Lane",,51.45678,-0.93093,,,,,,
035090100004,,"London Rd - The Drive",,51.45567,-0.93454,,,,,,
035090100003,,"London Rd - The Drive",,51.45542,-0.93629,,,,,,
039026570002,,"Liverpool Road",,51.45467,-0.94198,,,,,,
039025550002,,"Cholmeley Road",,51.45396,-0.94516,,,,,,
039025480001,,"Cemetery Junction",,51.45306,-0.95122,,,,,,
039027450001,,"Reading College",,51.45354,-0.95586,,,,,,
039025980001,,"Eldon Road",,51.45387,-0.96001,,,,,,
039026050006,,"Huntley and Palmers",,51.45532,-0.96295,,,,,,
039028150002,,"Blagrave Street",,51.45763,-0.97038,,,,,,
039025920003,,"Kings Road",,51.45499,-0.96831,,,,,,
039026410005,,"Huntley and Palmers",,51.45506,-0.96144,,,,,,
039025980002,,"Eldon Road",,51.45385,-0.95725,,,,,,
039027450002,,"Reading College",,51.45345,-0.95346,,,,,,
039025480002,,"Cemetery Junction",,51.45314,-0.95034,,,,,,
039025480003,,"Cemetery Junction",,51.4531,-0.94987,,,,,,
039025550001,,"Cholmeley Road",,51.4537,-0.94656,,,,,,
039026570001,,"Liverpool Road",,51.45499,-0.9407,,,,,,
035090100001,,"London Rd - The Drive",,51.45613,-0.93463,,,,,,
035090120001,,"Shepherds House Lane",,51.45698,-0.93146,,,,,,
035090140001,,"Earley Power Station",,51.45806,-0.92601,,,,,,
035090160001,,"Shepherds Hill Top",,51.45937,-0.92164,,,,,,
035090180001,,"Sonning Lane",,51.46371,-0.91362,,,,,,
035090200001,,"Holmemoor Drive",,51.46558,-0.90953,,,,,,
035090220001,,"Hawthorn Way",,51.46869,-0.903,,,,,,
035090240001,,"Model Farm",,51.47166,-0.89548,,,,,,
035090260003,,"Wee Waif",,51.47475,-0.88919,,,,,,
035091020001,,"Park View Drive South",,51.47611,-0.8855,,,,,,
035091040001,,"Chiltern Drive",,51.4777,-0.88256,,,,,,
035091060001,,"Waggon and Horses",,51.47822,-0.8723,,,,,,
035059870002,,"Old Silk Mill",,51.47782,-0.87038,,,,,,
035091100001,,Waitrose,,51.47804,-0.86548,,,,,,
035091200001,,"Springfield Park",,51.47908,-0.86369,,,,,,
035091300001,,"Loddon Hall Road",,51.48184,-0.86144,,,,,,
035091400001,,Pennfields,,51.48347,-0.86019,,,,,,
035091420001,,"Longfield Road",,51.48523,-0.86253,,,,,,
035091440001,,"Arnside Close",,51.48594,-0.86482,,,,,,
035091460001,,"Carlile Gardens",,51.48558,-0.86903,,,,,,
035090600001,,"Carliles Corner - New Bath Rd Rdbt",,51.48764,-0.87078,,,,,,
035090660001,,"The Greyhound",,51.50113,-0.86989,,,,,,
035090700001,,"Willow Lane",,51.50742,-0.86868,,,,,,
035090740001,,"White Cliff",,51.51544,-0.86966,,,,,,
035090760001,,"Kenton's Lane",,51.51904,-0.87246,,,,,,
035090780001,,"Temple Combe",,51.52383,-0.8775,,,,,,
035090800001,,"Marsh Mills",,51.53133,-0.8887,,,,,,
035090820001,,"Two Brewers",,51.53627,-0.89672,,,,,,
040000003459,,"Main Road",,51.641233,-0.831985,,,,,,
040000003450,,"Main Road",,51.641219,-0.831509,,,,,,
040000003492,,"Beech Close",,51.65168,-0.892196,,,,,,
040000003494,,"Penley Farm",,51.644462,-0.890609,,,,,,
040000003496,,"Chequers Lane",,51.63443,-0.881389,,,,,,
040000003497,,"Beech Close",,51.651049,-0.892052,,,,,,
040000003498,,"Combined School",,51.628062,-0.869005,,,,,,
040000003499,,"Penley Farm",,51.644136,-0.890356,,,,,,
040000003501,,"Chequers Lane",,51.635212,-0.882309,,,,,,
040000003503,,"Combined School",,51.628195,-0.869681,,,,,,
040000002946,,"Kingsley Crescent",,51.624568,-0.760644,,,,,,
040000003890,,"Shelley Road",,51.622674,-0.763542,,,,,,
040000003891,,"Deeds Grove",,51.624867,-0.769376,,,,,,
040000002921,,"Seymour Court Road",,51.578897,-0.781933,,,,,,
040000002922,,"Seymour Court Road",,51.57885,-0.781761,,,,,,
040000003564,,"Village Hall",,51.619185,-0.836495,,,,,,
040000003565,,"Village Hall",,51.619113,-0.836482,,,,,,
040000003507,,"Rackley's Farm",,51.625561,-0.857698,,,,,,
040000003506,,"Finings Road",,51.621797,-0.847045,,,,,,
040000003504,,"Fingest Lane",,51.623464,-0.850138,,,,,,
040000003505,,"The Old Ship",,51.626162,-0.863982,,,,,,
040000003502,,"Rackley's Farm",,51.625577,-0.857481,,,,,,
040000003500,,"The Old Ship",,51.626935,-0.865898,,,,,,
040000003397,,"Limmer Lane",,51.613644,-0.792687,,,,,,
040000003389,,YMCA,,51.613083,-0.779299,,,,,,
040000003391,,"Alford Road",,51.612925,-0.785774,,,,,,
040000003395,,"Holmers Court",,51.613794,-0.791556,,,,,,
040000003376,,"Limmer Lane",,51.613734,-0.792685,,,,,,
040000003511,,"Finings Road",,51.621598,-0.846863,,,,,,
040000003509,,"Fingest Lane",,51.623329,-0.850098,,,,,,
040000003470,,"Mill Lane",,51.659059,-0.914049,,,,,,
040000003889,,"Mill Lane",,51.658834,-0.913982,,,,,,
040000003477,,"Mill Road",,51.656135,-0.915853,,,,,,
040000003472,,"Mill Road",,51.656767,-0.916055,,,,,,
040000003474,,"Studdridge Farm",,51.653323,-0.916108,,,,,,
040000003479,,"Studdridge Farm",,51.653483,-0.915902,,,,,,
040000003481,,"Commonhill Wood",,51.641445,-0.918039,,,,,,
040000003483,,"The Fox",,51.639237,-0.916473,,,,,,
040000003485,,"Grays Lane",,51.636396,-0.912596,,,,,,
040000003487,,"Chiltern Cottages",,51.633596,-0.910293,,,,,,
040000003489,,"Parsonage Wood",,51.632287,-0.909747,,,,,,
040000003484,,"Infant School",,51.627531,-0.906942,,,,,,
040000003476,,"Commonhill Wood",,51.641528,-0.918182,,,,,,
040000002901,,"The Fox",,51.638948,-0.916307,,,,,,
040000003478,,"Grays Lane",,51.636545,-0.913185,,,,,,
040000003480,,"Chiltern Cottages",,51.633498,-0.910339,,,,,,
040000003482,,"Parsonage Wood",,51.632415,-0.909917,,,,,,
040000003945,,"Court Garden Leisure Centre",,51.568393,-0.776601,,,,,,
040000003029,,"High Street",,51.570841,-0.775943,,,,,,
040000002975,,"Sandygate Road",,51.577656,-0.780191,,,,,,
040000003708,,Sunnybank,,51.581519,-0.779871,,,,,,
040000002916,,"Seymour Park Road Hail & Ride",,51.57935,-0.777937,,,,,,
040000003314,,"Hillside Road Hail & Ride",,51.58175,-0.77096,,,,,,
040000002437,,"Hill Farm Road",,51.586209,-0.770002,,,,,,
040000002435,,"Patches Field",,51.586288,-0.771617,,,,,,
040000003758,,"Post Office",,51.586638,-0.775793,,,,,,
040000003787,,"High Heavens Wood",,51.598969,-0.783013,,,,,,
040000003785,,"Badgers Way",,51.595376,-0.782546,,,,,,
040000003783,,"Squirrel Rise",,51.590614,-0.782918,,,,,,
040000003781,,"Burford School",,51.588059,-0.781024,,,,,,
040000003779,,"Post Office",,51.586808,-0.775716,,,,,,
040000002436,,"Patches Field",,51.586371,-0.771759,,,,,,
040000003777,,"Hill Farm Road",,51.586233,-0.76977,,,,,,
040000003736,,"Burroughs Grove Hill",,51.600738,-0.76987,,,,,,
040000003922,,"High Street",,51.571102,-0.775979,,,,,,
040000003773,,"Maple Rise",,51.577367,-0.771511,,,,,,
040000002917,,"Seymour Park Road Hail & Ride",,51.579259,-0.777867,,,,,,
040000003181,,"Hillside Road Hail & Ride",,51.581641,-0.770919,,,,,,
040000003775,,"Gypsy Lane",,51.581255,-0.767509,,,,,,
